Название;Регион;Район;Населённый пункт;Адрес;Широта;Долгота;Телефоны;Время работы
"МУЗ ""Алагирская ЦРБ""";Республика Северная Осетия (Алания);Алагирский;Алагир;г. Алагир, ул. Островского, 38;43.042721;44.222568;(86731) 5-22-43, 3-20-92;пн-пт 9.00-14.00
"ОГУЗ ""Ангарская областная станция переливания крови""";Иркутская область;Ангарский район;Ангарск;г. Ангарск, 95 квартал, 13, пом. 65;52.541672;103.919548;(3955) 67-89-37;пн-пт 7.45-15.30
"Филиал №2 ОГУЗ ""Братская ОСПК"" Отделение заготовки крови г. Железногорск- Илимский";Иркутская область;Усть-Илимский район;Железногорск-Илимский;г. Железногорск- Илимский, квартал 3, 34/1;56.575050;104.117470;(39566) 3-18-25;
Пушкинский филиал;Санкт-Петербург;Санкт-Петербург;Пушкин;г. Пушкин, ул.Жуковско- Волынская , д. 2/4;59.718377;30.426396;(812) 466-43-92, 466-43-86;пн-сб 8:30 - 14:00
"ОПК ГУ ""МОНИКИ"" им. М.Ф. Владимирского";Москва;Москва;Москва;ул. Щепкина, 61/2;55.785667;37.628966;(495) 681-41-70, 631-30-22 (ОПК);
ГУЗ «Краевая станция переливания крови №1»;Пермский край;Пермский;Пермь;г. Пермь ул. Лебедева, дом 54;58.017626;56.276668;(342) 248-63-24;пн-пт 8.00-13.00
"ГУЗ ""Московская областная станция переливания крови""";Москва;Москва;Москва;г. Москва, ул. Металлургов, 37а;55.762126;37.799329;(495) 304-02-21;пн-пт 8.00-15.00
"ГУЗ ""Бузулукская станция переливания крови""";Оренбургская область;Бузулукский;Бузулук;г. Бузулук, 4 мкн, 1;52.785240;52.252640;(35342) 5-64-16;пн-пт 8.00-14.00
"МУЗ ""Ягодинская ЦРБ""";Магаданская область;Ягодинский;пос. Ягодное;Ягодинский р-н, п. Ягодное, ул. Ленина, 13;62.526878;149.626465;(41343) 2-25-71, 2-29-58;вт. 8.30-12.00
"ОГУЗ ""Смоленский центр крови""";Смоленская область;Смоленск;Смоленск;г. Смоленск, ул. Ковтюха, д. 6;54.781101;32.048889;(4812) 38-04-20;пн-пт 8.00-16.00
"ГУЗ ""Мородовская республиканская станция переливания крови""";Республика Мордовия;Саранск;Саранск;г. Саранск, ул. Дальняя, 3а;54.188557;45.153358;(8342) 24-64-89, 32-83-11;пн-пт 8.00-12.00
"ГУЗ ""Брянская областная станция переливания крови""";Брянская область;Брянский городский округ;Брянск;г. Брянск, ул. 3-го Июля, 48;53.259753;34.363676;(4832) 64-84-93, 64-88-64;пн-пт 8.30-14.00
Отделение заготовки крови №2;Свердловская область;Артёмовский городской округ;Артёмовский;г. Артемовский, ул. Энергетиков, 1;57.338169;61.903481;(34363) 2-48-76;вт,ср,чт 8.00-14.00
Отделение заготовки крови №11;Свердловская область;Режевской городской округ;Реж;г. Реж, ул. П. Морозова, 60;57.364861;61.408650;(34364) 5-53-30;вт,ср,чт 8.00-14.00
"МУ ""Суоярвская ЦРБ""";Республика Карелия;Суоярвский;Суоярви;г. Суоярви, ул. Шельшакова, 17;62.094341;32.376759;(81457) 5-10-40, ОПК: 5-13-58;вт 9.00-12.00
"МЛПУ ""Костомукшская ГБ""";Республика Карелия;Костомукша;Костомукша;г. Костомукша, ул. Мира, 9;64.570511;30.575470;(81459) 5-10-27, 5-17-03, ОПК: 5-12-06;вт, чт 9.00-12.00
"МУЗ ""Дзун-Хемчикская ЦКБ""";Республика Тыва;Дзун-Хемчикский кожуун;Чадан;г. Чадан, ул. Ленина, 74;51.290650;91.569031;(39434) 2-10-12;пн-пт 8.00-17.00
"МУЗ ""Барун-Хемчикская ЦКБ""";Республика Тыва;Барун-Хемчикский район;Ак-Довурак;г. Ак-Довурак, ул. Центральная, 18;51.166290;90.600510;(39433) 2-12-54;пн-пт 8.00-17.00
"ГУЗ ""Ульяновская областная станция переливания крови""";Ульяновская область;Ульяновский;Ульяновск;г. Ульяновск, ул. 3-го Интернационала, 13;54.321480;48.385650;(8422) 32-54-80, 32-56-66;пн-пт 7.30 - 15.00
"ГУЗ ""Республиканская станция переливания крови""";Республика Алтай;Горно-Алтайский;Горно-Алтайск;г. Горно-Алтайск, ул. Шоссейная, д. 23;51.958118;85.971291;(38822) 22-963;пн-пт 9.00-12.00
"МУ ""Центральная  больница г. Ноябрьск""";Ямало-Ненецкий АО;Ноябрьск;Ноябрьск;г. Ноябрьск, ул. Муравленкова, 42-б;63.177385;75.411415;(3496) 35-01-70, 32-15-20;пн-пт 8.00-15.00
"ГУЗ ""Республиканская станция переливания крови""";Республика Северная Осетия (Алания);Владикавказ городской округ;Владикавказ;г. Владикавказ, ул. Барбашова, 37;43.031231;44.675770;(8672) 52-87-04, 52-60-59, 52-23-96;пн-пт 9.00-14.00
Филиал №1;Вологодская область;Сокольский;Сокол;г. Сокол, ул. Советская, 50;59.460339;40.139351;(81733) 2-22-90;пн-пт 8.00-12.00
Филиал №2;Вологодская область;Великиоустюжский;Великий Устюг;г. Великий Устюг, ул. Водников, 2;60.763229;46.307789;(81738) 2-32-62;пн-пт 8.00-12.00
"МУЗ ""Клинцовская ЦГБ""";Брянская область;Клинцовский;Клинцы;г. Клинцы, пр-т Ленина, 58;52.758732;32.256031;(48336) 5-64-89;ср, чт 8.00 - 15.00
"ГУЗ ""Сызранская станция переливания крови""";Самарская область;Сызранский;Сызрань;г. Сызрань, ул. Солнечная, д. 40;53.173111;48.469280;(8464) 35-79-63, 35-71-85;пн-пт 8.00-14.00
ГУЗ «Республиканская станция переливания крови» Министерства здравоохранения и социального развития Чувашской Республики;Чувашская Республика;Чебоксары;Чебоксары;г. Чебоксары, ул. Пирогова, 9;56.138013;47.24247;(8352) 45-39-84, 45-56-59, 45-39-08;пн-пт 8.00-13.00
Отделение забора крови №3;Ярославская область;Ярославль;Ярославль;г. Ярославль, ул. Здоровья, 10;57.73244;39.815083;(4852) 38-28-35;вт,чт 8.00-12.00
"ОГУЗ ""Ненецкая окружная больница""";Ненецкий АО;Нарьян-Марский;Нарьян-Мар;г. Нарьян- Мар, ул. Ленина, 4;67.669144;53.082001;(81853) 4-20-86, 6-50-61, 4-06-80;пн,чт 8.00-9.00
"ГУЗ ""Санкт-Петербургская ГБ №31""";Санкт-Петербург;Санкт-Петербург;Санкт-Петербург;пр-т Динамо, 3;59.971163;30.280047;(812) 235-49-66, 235-21-11;пн-пт 9.00-12.00
"ГУЗ ""Городской клинический онкологический диспансер""";Санкт-Петербург;Санкт-Петербург;Санкт-Петербург;пр-т Ветеранов, 56;59.836765;30.238963;(812) 756-99-00, 752-95-54;пн-чт 9.00-12.00
"ГУЗ ""Тольятинская  областная станция переливания крови""";Самарская область;Ставропольский;Тольятти;г. Тольятти, Московский проспект, 19;53.531021;49.263259;(8482) 77-71-01;пн-пт 7.30-13.30
Слободское ОПК;Кировская область;Слободской;Слободской;г. Слободской, ул. Советская, 90;58.723862;50.176128;(83334) 5-05-41;пн-пт 8.00-16.00, забор крови по предварительной записи
"Филиал №5 ГУЗ ""ЛОСПК""";Ленинградская область;Лодейнопольский район;Лодейное Поле;Лодейнопольский район, г. Лодейное Поле, ул. Гагарина, 1;60.731585;33.56389;(81364) 2-04-54;ср 9:00-12:00
"ГУЗ ""Вологодская областная станция переливания крови № 2""";Вологодская область;Череповецкий;Череповец;г. Череповец, ул. Беляева, 51;59.124697;37.998962;+7(8202) 221-58-24;пн-пт 8.00-12.00
"ГУЗ ""Волгоградская областная СПК 3""";Волгоградская область;Михайловка городской округ;Михайловка;г. Михайловка, ул. Щорса, 2;50.064720;43.257641;(84463) 2-35-75, 2-16-01;пн-пт 8.00-13.00
Александров;Владимирская область;Александровский;Александров;г. Александров, ул. Революции, 34;56.396759;38.724190;(09244) 2-00-45;пн-пт 8.00-16.30
"МУЗ ""Шебекинская ЦРБ""";Белгородская область;Шебекинский;Шебекино;г. Шебекино, ул. Ленина, 46;50.403488;36.888039;(47248) 2-28-57, 2-36-54;вт, ср 9.00-12.00
"МУЗ ""Лиманская ЦРБ""";Астраханская  область;Лиманский;пос. Лиман;п. Лиман, ул. Ленина, 58;45.780319;47.220009;(85147) 2-12-02;вт,чт 8.00-12.00
"МУЗ ""Галичская ГБ""";Костромская область;Галичский;Галич;г. Галич, ул. Фестивальная, 1;58.377209;42.337372;(49437) 2-26-94, 2-10-05;ср,пт 8.00-13.00
"МУЗ ""Апатинская ЦГБ""";Мурманская область;Апатитский;Апатиты;г. Апатиты, ул. Бредова, 18;67.579620;33.390980;(81555) 6-80-31;пн-пт 8.00-13.00
Отделение заготовки крови №8;Свердловская область;Талицкий;Талица;г. Талица, ул. Кузнецова, 54;57.008179;63.718288;(34371) 2-13-69;пн-пт 8.00-14.00
"МУЗ ""Баунтовская ЦРБ""";Республика Бурятия;Бауновский район;п. Багдарин;Баунтовский р-он, п. Багдарин, ул. Ленина, 127;54.444580;113.587677;(30153) 5-11-17, 4-16-12;пн-пт 8.00-16.30
"МУЗ ""КБ №4""";Волгоградская область;Волгоград городской округ;Волгоград;г. Волгоград, ул. Дзержинского, 28;48.805462;44.594411;(8442) 74-01-71;вт,чт 8.00-12.00
"МУЗ ""Кяхтинская ЦРБ""";Республика Бурятия;Кяхтинский район;Кяхта;г. Кяхта, ул. Ленина, 89;50.354092;106.443230;(30142) 9-14-04, 9-15-01;пн-пт 8.00-16.30
"МУЗ ""Петропавловская ЦРБ""";Республика Бурятия;Джидинский район;с. Петропавловка;Джидинский р-он, с. Петропавловка, ул. Ленина, 5;52.039181;108.475838;(30134) 4-13-31, 4-18-98;пн-пт 8.00-16.30
"Филиал №6 ГУЗ ""ЛОСПК""";Ленинградская область;Тихвинский район;Тихвин;г. Тихвин, ул Карла Маркса, д. 68;59.639667;33.51634;(81367) 7-73-02;вт 8:00-10:00
"Филиал №3 ГУЗ ""ЛОСПК""";Ленинградская область;Гатчинский район;Гатчина;Гатчинский район, г. Гатчина, ул. Рощинская, 5;59.56001;30.139246;(81371) 3-51-57;пн 9.00-12.00
Буйнакская станция переливания крови;Республика Дагестан;Буйнакский район;Буйнакск;г. Буйнакск, ул. Ленина, 85;42.820629;47.117901;"(87237) 2-50-70; 2-13-51";пн-пт 8.30-14.00
Хасавюртовская станция переливания крови;Республика Дагестан;Хасавюртский район;Хасавюрт;г. Хасавюрт, ул. Алиева, 21;43.246769;46.589390;(87231) 0-34-32;пн-пт 8.30-14.00
ЦГБ г. Каспийск;Республика Дагестан;Каспийский район;Каспийск;г. Каспийск, ул. А. Алиева, 2;42.882751;47.638249;"(87246) 5-11-96; ОПК: 6-64-72";пн-пт 8.30-13.00
"ГУ ""Сунженская ЦРБ""";Республика Ингушетия;Сунженский;ст. Орджоникидзевская;ст. Орджоникидзевская, ул. Оксанова, 5;43.320270;45.053620;(8734) 72-20-88, 72-16-59;пн-пт 9.00-15.00
ЦГБ г. Кизляр;Республика Дагестан;Кизлярский район;Кизляр;г. Кизляр, ул. Победы, 48;43.844650;46.718689;(87239) 2-30-41;пн-пт 8.30 - 13.00
ЦГБ г. Кизилюрт;Республика Дагестан;Кизилюртский район;Кизилюрт;г. Кизилюрт, ул. Аскерханова,11;43.201820;46.877560;(87234) 2-24-12;пн-пт 8.30 - 13.00
Республиканская КБ;Республика Дагестан;Махачкалинский район;Махачкала;г. Махачкала, ул. Ляхова, 47;42.973718;47.49675;"(8722) 67-90-07; 99-01-00; 67-58-92; 99-01-39, 67-58-92";пн-пт 8.30 - 13.00
Республиканская больница №2;Республика Дагестан;Махачкалинский район;Махачкала;г. Махачкала, ул. Пирогова, 3;42.975286;47.492263;"(8722) 62-06-64; 67-72-20";пн-пт 8.30 - 13.00
ЦГБ г. Дербент;Республика Дагестан;Дербентский район;Дербент;г. Дербент, ул. Буйнакского, 43;42.057831;48.300480;(87240) 4-73-88, 4-82-31, 2-28-81;пн-пт 8.30 - 13.00
"ГУ ""ЦРБ г. Малгобек""";Республика Ингушетия;Малгобекский;Малгобек;г. Малгобек, ул. Гарданова, 3;43.511780;44.604252;(8734) 62-36-79, 62-34-96;пн-пт 9.00-15.00
"Филиал №3 ""ВОСПК"" Электроника";Воронежская область;Воронеж городской округ;Воронеж;г. Воронеж, ул. Минская, д. 43;51.679574;39.270328;(4732) 96-17-51;пн-пт 8.00 - 14.00
"Филиал №4 ""ВОСПК""";Воронежская область;Бобровский;Бобров;г. Бобров, ул. Гагарина, д. 333;51.092110;40.035061;(47350) 4-82-14;пн-пт 8.00 - 14.00
"Филиал №5 ""ВОСПК""";Воронежская область;Бутурлиновский;Бутурлиновка;г. Бутурлиновка, ул. 3 Интернационала, д. 1а;50.830631;40.586498;(47361) 2-11-10;пн-пт 8.00 - 14.00
"Филиал №6 ""ВОСПК""";Воронежская область;Калаченский;Калач;г. Калач, ул. Борцов Революции, д. 20;50.424610;41.025509;(47363) 2-21-57;пн-пт 8.00 - 14.00
"Филиал №7 ""ВОСПК""";Воронежская область;Острогожский;Острогожск;г. Острогожск, ул. Кузнецова, д. 92;50.859982;39.072781;(47375) 4-19-26;пн-пт 8.00 - 14.00
"Филиал №8 ""ВОСПК""";Воронежская область;Павловский;Павловск;г. Павловск, ул. Переулок Лесной., д. 1а;50.460651;40.103111;(47362) 3-18-10;пн-пт 8.00 - 14.00
"Филиал №9 ""ВОСПК""";Воронежская область;Россошский;Россошь;г. Россошь, ул. Пролетарская, д. 60;50.204361;39.538700;(47396) 2-05-10;пн-пт 8.00 - 14.00
"МУЗ ""ГБ г. Муравленко""";Ямало-Ненецкий АО;Муравленко;Муравленко;г. Муравленко, ул Академика Губкина, 24;63.776813;74.518089;(34938) 2-74-80, 2-77-20;пн-пт 8.00-15.00
"ГУЗ ""Воркутинская станция переливания крови""";Республика Коми;Воркута городской округ;Воркута;г. Воркута, ул. Гагарина, 10-а;67.485046;64.029739;(82151) 6-32-90, 6-32-66;пн-пт 8.00-12.00
"ГУЗ ""Ухтинская станция переливания крови""";Республика Коми;Ухта городской укруг;Ухта;г. Ухта, ул. Горького, 11;63.569611;53.672981;(82147) 6-35-07;пн-пт 8.00-12.00
"ГУЗ ""Печорская станция переливания крови""";Республика Коми;Печора муниципальный район;Печора;г. Печора, ул. Речная, 9;65.144493;57.228489;(82142) 7-41-14;пн-пт 8.00-12.00
ХМАО-Югры «Окружная станция переливания крови»;Ханты-Мансийский АО;Ханты-Мансийский;Ханты-Мансийск;г. Ханты-Мансийск ул. Калинина, 40,;61.000969;69.005885;(34673) 9-02-18;пн-пт 9.00-13.00
БУ «Сургутская станция переливания крови»;Ханты-Мансийский АО;Сургутский;Сургут;г. Сургут, проезд Дружбы, 4,;61.258728;73.399601;(3462) 37-68-08;пн-пт 9.00-13.00
МЛПУ «Когалымская городская больница»;Ханты-Мансийский АО;Когалым;Когалым;г. Когалым, ул. Молодежная, 19;62.241439;74.525013;(8-34667) 2-32-20, 2-33-55;пн-пт 9.00-13.00
МУ «Центральная районная больница Кондинского района»;Ханты-Мансийский АО;Кондинский;Междуреченский пгт;пгт. Междуреченский, ул. Кондинская, 3;59.59941;65.876026;(34677) 3-31-54, 3-21-10;пн-пт 9.00-13.00
Няганская окружная больница;Ханты-Мансийский АО;Нягань;Нягань;г. Нягань, ул. Загородных, 12;62.135446;65.381584;(34672) 3-96-18;пн-пт 9.00-13.00
ММУ «Октябрьская центральная районная больница»;Ханты-Мансийский АО;Октябрьский;Октябрьское;пгт. Октябрьское, ул. Медицинская-3;62.46209;66.010265;(34678) 2-01-18;пн-пт 9.00-13.00
МЛПУ «ЦГБ г. Югорска»;Ханты-Мансийский АО;Югорск;Югорск;г. Югорск, ул. Попова, 29;61.317939;63.331318;(34675) 2-32-32, 6-78-00, 2-48-10;пн-пт 9.00-13.00
"ГУЗ ""Шадринская областная станция переливания крови""";Курганская область;Шадринский;Шадринск;г. Шадринск, ул. Михайловская, 112;56.087700;63.636089;(35253) 52-898;пн-пт 9.00-13.00
"МУЗ ""Раевская ЦРБ""";Республика Башкортостан;Альшеевский;пос. Раевский;Альшеевский р-н, п. Раевский, ул. Космонавтов, 1;54.046219;55.241329;8(34754) 3-16-74;2р. в нед. 8.00-12.00
ОПК МУЗ «Ахтубинская ЦРБ»;Астраханская  область;Ахтубинский;Ахтубинск;г.Ахтубинск, ул.Саратовская,38;48.290451;46.164341;(8512) 41-5-22-34;пн,ср,пт 8.00-12.00
ОПК МУЗ «Харабалинская ЦРБ»;Астраханская  область;Харабалинский;Харабали;г.Харабали, ул.Советская,108;47.404499;47.272412;(85148) 5-92-58, 5-14-05;пн,ср,пт 8.00-12.00
МУЗ «Красноярская ЦРБ»;Астраханская  область;Красноярский;с. Красный Яр;с.Красный Яр, ул. З.Ананьевой, 53;46.534149;48.342010;(85146) 9-15-63;вт,чт 8.00-12.00
"МУЗ ""Жуковская ЦРБ""";Брянская область;Жуковский;Жуковка;г. Жуковка, Первомайский пер., 19;53.538971;33.736180;(48334) 3-14-91, 3-38-39,  3-17-42;пн-пт 8.30-13.00
"МУЗ ""Станция скорой медицинской помощи""";Камчатский край;Елизовский район;Елизово;г. Елизово, ул. Вилюйская, 5;53.183159;158.382492;(41531) 6-17-57;пн-пт 8.00-12.00
"ММУ ""ЦРБ г. Вилючинска""";Камчатский край;Вилючинский район;пос. Вилючинск;г. Вилючинск, ул. Победы, 1а;52.939831;158.409012;(41535) 3-19-79;пн,ср 8.30-14.00
"Канашское отделение ГУЗ ""РСПК""";Чувашская Республика;Канашский;Канаш;г. Канаш, ул. 30 лет Чувашии, 13;55.505821;47.499361;(83533) 2-24-50, 2-18-11;пн-пт 8.00-13.00
Вятско-Полянское ОПК;Кировская область;Вятско-Полянский;Вятские Поляны;г. Вятские Поляны, ул. Лермонтова, 2;56.221481;51.072689;(83334) 6-45-55;пн-пт 8.00-16.00, забор крови по предварительной записи
Котельничское ОПК;Кировская область;Котельничий;Котельнич;г. Котельнич, ул. Октябрьская, 158А;58.303742;48.327911;(83342) 4-18-48, 4-09-30;пн-пт 8.00-16.00, забор крови по предварительной записи
"ГУЗ ""Станция переливания крови г. Стерлитамак""";Республика Башкортостан;Стерлитамакский;Стерлитамак;г. Стерлитамак, ул. Коммунистическая, 89а;53.622341;55.957580;(3473) 24-36-58;пн-пт 8.00-13.00
"ГУЗ ""Станция переливания крови г. Октябрьский""";Республика Башкортостан;Октябрьский;Октябрьский;г. Октябрьский, ул. Островского, 3;54.485050;53.455422;(34767) 5-40-55, 5-38-12;пн-пт 8.00-13.00
"МУЗ ""ЦГБ ГО г. Нефтекамск""";Республика Башкортостан;Нефтекамский;Нефтекамск;г. Нефтекамск, ул. Паркова, 31;56.091728;54.261661;(34783) 5-37-54, 5-72-28;пн-пт 8.00-13.00
"ГОУ ВПО ""Башкирский государственный медицинский университет""";Республика Башкортостан;Уфимский;Уфа;г. Уфа, ул. Шафиева, 2;54.765357;55.993860;(3472) 23-11-33, 23-11-42;2р. в нед. 9.00 - 12.00
"ГУЗ ""Республиканская КБ им. Г. Г. Куватова""";Республика Башкортостан;Уфимский;Уфа;г. Уфа, ул. Достоевского, 132;54.732823;55.967875;(3472) 72-27-86, 28-77-77;пн-пт 8.00-12.00
"ГУЗ ""Республиканский клинический онкологический диспансер""";Республика Башкортостан;Уфимский;Уфа;г. Уфа, Проспект Октября, 73/1;54.763302;56.010092;(3472) 37-36-62, 37-30-13;3р. в нед. 8.00-13.00
"ГУЗ ""Республиканская детская КБ""";Республика Башкортостан;Уфимский;Уфа;г. Уфа, ул. Ст. Кувыкина, 98;54.699779;55.995126;(3472) 55-74-26, 54-88-84;4р. в нед. 8.00-12.00
"МУ ""Роддом №3""";Республика Башкортостан;Уфимский;Уфа;г. Уфа, ул. Кольцевая, 131;54.816637;56.103401;(3472) 64-69-61;2р. в нед. 8.00 - 12.00
"МУЗ ""ЦРБ г. Кумертау""";Республика Башкортостан;Кумертауский;Кумертау;г. Кумертау, ул. Советская, 39;52.769329;55.793469;(34761) 4-17-00, 4-34-33;пн-пт 8.00-12.00
"МУЗ ""ЦРБ г. Белорецк""";Республика Башкортостан;Белорецкий;Белорецк;г. Белорецк, ул. 5 июля, 6;53.967201;58.416611;(34792) 4-03-20, 5-07-88;2р. в нед. 8.00 - 12.00
"МУ ""ГБ №2 г. Салават""";Республика Башкортостан;Салаватский;Салават;г. Салават, ул. Калинина, 65а;53.359249;55.929920;(3476) 33-83-10;пн-пт 8.00-13.00
"МУЗ ""ЦРБ г. Туймазы""";Республика Башкортостан;Туймазский;Тумайзы;г. Туймазы, ул. Ленина, 1;54.601742;53.725471;(34782) 4-27-54, 6-22-54;3р. в нед. 8.00-12.00
"МУЗ ""ЦРБ г. Ишимбай""";Республика Башкортостан;Ишимбайский;Ишимбай;Г. Ишимбай, ул. Стахановская, 75;53.452728;56.034340;(34794) 2-60-15;2р. в нед. 8.00-12.00
"МУ ""ЦГБ г. Учалы""";Республика Башкортостан;Учалский;Учалы;г. Учалы, ул. Муртазина, 27;54.305431;59.444771;(34791) 3-64-85, 6-06-47;2р. в нед. 8.00-12.00
"МУ ""ЦБ г. Белебей""";Республика Башкортостан;Белебейский;Белебей;г. Белебей, ул. Революционеров, 6;54.107399;54.127960;(34786) 3-17-94, 3-04-67;2р. в нед. 8.00-12.00
"МУЗ ""ЦРБ г. Бирск""";Республика Башкортостан;Бирский;Бирск;г. Бирск, ул. Коммунистическая, 120;55.417511;55.545200;(34784) 2-25-31, 2-37-15;пн-пт 10.00-13.00
"МУЗ ""ЦГБ г. Сибай""";Республика Башкортостан;Сибайский;Сибай;г. Сибай, ул. Чайковского, 24;52.710079;58.663700;(34775) 3-35-81, 2-26-72;2р. в нед. 8.00-12.00
"МУ ""Баймакская ЦРБ""";Республика Башкортостан;Баймакский;Баймак;г. Баймак, ул. Мира, 1;52.589642;58.321442;(34751) 3-14-46, 2-14-43;2р. в нед. 8.00-12.00
"МУЗ ""Давлекановская ЦРБ""";Республика Башкортостан;Давлекановский;Давлеканово;Давлеканово, ул.Заводская, 9;54.212719;55.017109;(34768) 3-20-06, 3-25-06;2р. в нед. 8.00-11.00
"МУЗ ""Дюртюлинская ЦРБ""";Республика Башкортостан;Дюртюлский;Дюртюли;Дюртюли, ул.Ленина, 27;55.480530;54.871509;(34787) 2-10-54, 2-24-70;3р. в нед. 9.00-12.00
"МУЗ ""Янаульская ЦРБ""";Республика Башкортостан;Янаулский;Януал;Янаул, ул.Давлетшина, 23;56.280769;54.933048;(34760) 2-30-96, 5-16-63;2р. в нед. 9.00 - 11.00
"МУ ""Бижбулякская ЦРБ""";Республика Башкортостан;Бижбулякский;с. Бижбуляк;с.Бижбуляк, ул.Центральная, 27;53.703461;54.275799;(34743) 2-12-62, 2-17-89;2р. в нед. 9.00 - 10.00
"МУЗ ""Мраковская ЦРБ""";Республика Башкортостан;Мраковский;с. Мраково;с.Мраково, ул.Ленина, 52;52.720730;56.630730;(34789) 2-16-03, 2-26-73;2р. в нед. 9.30 - 11.00
"МУ ""Миякинская ЦРБ""";Республика Башкортостан;Киргиз-Миякский;с. Киргиз-Мияки;с.Киргиз-Мияки, ул.Советская, 12;53.633709;54.797420;(34788) 2-14-18, 2-13-46;2р. в нед. 10.00-11.30
"МУЗ ""Акъярская ЦРБ""";Республика Башкортостан;Акъярский;с. Акъяр;с.Акъяр, ул.Батанова, 9;51.859348;58.221310;(34758) 2-11-40, 2-11-48;2р. в нед. 9.30 - 11.00
"МУ ""Месягутовская ЦРБ""";Республика Башкортостан;Месягутовский;с. Месягутово;с.Месягутово. ул.Октябрьская, 36;55.538010;58.251839;(34798) 2-19-66, 2-12-20;2р. в нед. 9.00-11.00
"ГУЗ ""Станция переливания крови №6""";Краснодарский край;Армавирский;Армавир;г. Армавир, ул. Ленина, д. 107;44.996361;41.120628;(86137) 3-34-64;пн-пт 8.30-13.00
"ГУЗ ""Станция переливания крови №2""";Краснодарский край;Белореченский;Белореченск;г. Белореченск, ул. Толстого, 160;44.754250;39.885448;(86155) 3-32-77;пн-пт 8.30-12.00
"ГУЗ ""Станция переливания крови №5""";Краснодарский край;Ейский;Ейск;г. Ейск, ул. Энгельса, 156;46.691879;38.285641;(86132) 3-20-03;пн-чт 8.00-12.00
"ГУЗ ""Станция переливания крови №3""";Краснодарский край;Кореновский;Кореновск;г. Кореновск, ул. Новые планы,. 8;45.459560;39.453602;(86142) 4-08-50, 4-49-06;пн-пт 8.00-12.00
"ГУЗ ""Станция переливания крови №4";Краснодарский край;Новороссийский;Новороссийск;г. Новороссийск, ул. Видова, 87а;44.725729;37.756276;(8617) 21-01-11;пн-пт 7.30-11.00
"МУЗ ""Станция переливания крови г. Сочи""";Краснодарский край;Сочинский;Сочи;г. Сочи, ул. Дмитриевой, 34;43.577655;39.741411;(8622) 62-85-82, 62-87-17;пн-пт 8.00-13.00
"МУЗ ""ГБ г. Анапа""";Краснодарский край;Анапский;Анапа;г. Анапа, ул. Крымская, 24;44.889642;37.308401;(86133) 5-61-23, 5-00-68;пн,чт 9.00-13.00, пт 9.00-11.00
"МУЗ ""ЦРБ Апшеронского р-на""";Краснодарский край;Апшеронский;Апшеронск;г. Апшеронск, ул. Социалистическая, 1;44.469681;39.730240;(86152) 2-88-23, 2-10-11, 2-75-34;пн,чт 8.00-10.00
"Филиал ОГУЗ ""Ангарская  ОСПК""";Иркутская область;Куйтунский район;п. Куйтун;Ангарский район, п. Куйтун, ЦРБ;54.356899;101.511841;(8236) 4-20-24;
"Филиал №1 ГУЗ ""Иркутская ОСПК""";Иркутская область;Саянский район;Саяннск;г. Саянск, мкр. Благовещенский, 5А;54.119099;102.177383;(39553) 5-24-84;
"Филиал №2 ГУЗ ""Иркутская ОСПК""";Иркутская область;Шелеховский район;Шелехов;г. Шелехов, ул. Ленина, 24;52.209210;104.091019;(39550) 4-29-06;
"ГУЗ ""Краевая КБ №1""";Хабаровский край;Хабаровский;Хабаровск;г. Хабаровск, ул. Краснодарская, 9;48.515510;135.104499;(4212) 27-22-72;пн-пт 8.30-13.30
"ГУЗ ""Краевой КЦ онкологии""";Хабаровский край;Хабаровский;Хабаровск;г. Хабаровск, Воронежское ш., 164;48.461425;135.082483;(4212) 41-06-48;пн-пт 8.30-13.30
"ГУЗ ""Амурский центр организации специализированных видов медицинской помощи""";Хабаровский край;Амурский;Амурск;г. Амурск, пр-т Строителей, 21;50.225780;136.907104;(42142) 2-79-38;пн-пт 9.00-13.30
"ГУЗ ""Вяземский центр организации специализированных видов медицинской помощи""";Хабаровский край;Вяземский;Вяземский;г. Вяземский, ул. Студенческая, 1-а;47.525089;134.757446;(42153) 3-14-30;пн-пт 9.00-13.00
"МУЗ ""ЦРБ Абинского района""";Краснодарский край;Новороссийский;Новороссийск;г. Новороссийск, ул. Мира, 1;44.723015;37.775266;(86150) 5-33-62, 5-32-69, 5-24-78;вт,чт 8.00-12.00
"МУЗ ""ЦРБ Брюховецкого р-на""";Краснодарский край;Брюховецкий;ст Брюховецкая;ст. Брюховецкая, ул. Ленина, 72;45.814270;39.000038;(86156) 2-25-19, 3-29-69, 3-22-33;пн,чт 8.30-11.00
"МУЗ ""ГБ г. Геленджика""";Краснодарский край;Геленджикский;Геленджик;г. Геленджик, ул. Луначарского, 176;44.581206;38.064494;(86141) 3-38-37, 3-38-31;вт, чт 8.00-11.00
"МУЗ ""ЦРБ администраци г. Горячий Ключ""";Краснодарский край;Горячеключинский;Горячий Ключ;г. Горячий Ключ, ул. Жемчужная, 35;44.630459;39.145828;(86159) 4-17-44, 3-57-35, 3-78-24;пн,чт 8.00-14.00
"МУЗ ""ЦРБ Гулькевичского р-на""";Краснодарский край;Гулькевичский;Гулькевичи;г. Гулькевичи, ул. Комсомольская, 163;45.353580;40.694470;(86160) 5-19-29, 5-19-05, 5-19-34;вт,чт 7.30-10.00
"МУЗ ""Динская ЦРБ""";Краснодарский край;Динский;ст.  Динская;ст. Динская, ул. Кирпичная, 53а;45.217659;39.222618;(86162) 6-21-68, 6-17-58, 6-29-64;пн, ср 8.00-12.00
"МУЗ ""ЦРБ МО Кавказский р-н""";Краснодарский край;Кавказский;ст. Кавказская;ст. Кавказская, ул. Малиновского, 228;45.448311;40.673489;(86193) 2-32-15, 2-20-42, 2-32-21;пн,вт,чт 8.30-11.00
"МУЗ ""Каневская ЦРБ""";Краснодарский край;Каневский;ст Каневская;ст. Каневская, ул. Больничная, 108;46.079369;38.969261;(86164) 4-18-13, 4-00-11, 7-05-03;пн,чт 7.30-12.00
"МУЗ ""ЦГБ МО г. Кропоткин""";Краснодарский край;Кропоткинский;Кропоткин;г. Кропоткин, ул. Гагарина, 218;45.435680;40.576641;(86138) 6-32-57, 6-75-05;вт,чт 8.00-11.00
"МУЗ "" Красноармейская ЦРБ""";Краснодарский край;Полтавский;ст. Полтавская;ст. Полтавская, ул. Просвещения, 59/3;45.333333;38.216667;(86165) 3-28-74, 3-37-65;пн,чт 9.00-11.00
"МУЗ ""ЦРБ г.Крымска и Крымского р-на""";Краснодарский край;Крымский;Крымск;г. Крымск, ул. Горная, 15;44.939030;37.994881;(86131) 4-33-56, 4-50-00;пн,чт 8.00-11.00
"МУЗ ""Крыловская ЦРБ""";Краснодарский край;Крыловский;ст. Крыловская;ст. Крыловская, ул. Первомайская, 74;46.322681;39.958149;(86161) 3-13-25, 3-20-03, 3-20-28;пн,ср 8.00-11.00
"МУЗ ""Кущевская ЦРБ""";Краснодарский край;Кущевский;ст. Кущевская;ст. Кущевская, ул. Ленина, 2;46.550430;39.624081;(86168) 5-73-53, 5-49-31;пн-пт 8.00-12-00
"МУЗ ""Мостовская ЦРБ""";Краснодарский край;Мостовский;пгт. Мостовской;пгт. Мостовской, ул. Красная, 93;44.411591;40.800480;(86192) 5-13-97, 5-14-90, 5-25-73;пн,чт 10.00-12.00
"МУЗ ""ЦРБ Новокубанского р-на""";Краснодарский край;Новокубанский;Новокубанск;г. Новокубанск, ул. К. Маркса, 58;45.107868;41.049679;(86195) 3-18-05, 3-26-70, 3-00-19;вт,чт 7.00-9.30
"МУЗ ""ЦРБ МО Новопокровский р-он""";Краснодарский край;Новопокровский;ст Новопокровская;ст. Новопокровская, ул. Калинина, 191;45.955849;40.705639;(86149) 7-18-04, 7-13-86;пн-чт 8.00-12.00
"МУЗ ""Отрадненская ЦРБ""";Краснодарский край;Отрадный;ст. Отрадная;ст. Отрадная, ул. Пионерская, 57;44.397911;41.525711;(86144) 3-42-20, 3-41-76, 3-34-19;пн-чт 9.00-12.00
"МУЗ ""ЦРБ МО Приморско-Ахтарского р-на им. Кравченко Н.Г.""";Краснодарский край;Приморско-Ахтарский;Приморско-Ахтарск;г. Приморско-Ахтарск, ул. Комиссара Шевченко, 99;46.055118;38.194130;(86143) 2-02-47, 2-15-63;вт,чт 8.00-12.00
"МУЗ ""ЦРБ администрации МО Павловского р-на""";Краснодарский край;Павловский;ст Павловская;Павловская, ул. Первомайская, 14;46.136681;39.785358;(86191) 5-42-59, 5-33-52;пн,ср 8.00-11.00
"МУЗ ""Северская ЦРБ""";Краснодарский край;Северский;ст. Северская;ст. Северская, ул. Базарная, 15;44.858662;38.674671;(86166) 2-13-09, 2-13-91;вт,ср,чт 8.00-12.00
"МУЗ ""Славянская ЦРБ""";Краснодарский край;Славянск-на-Кубани;Славянск-на-Кубани;г. Славянск-на-Кубани, ул. Батарейная, 377;45.256370;38.124870;(86146) 2-38-14, 2-21-34;пн,чт 8.00-10.00
"МУЗ ""Староминская ЦРБ""";Краснодарский край;Староминский;ст. Староминская;ст. Староминская, ул. Красная, 14;46.537850;39.057621;(86153) 5-85-60, 4-21-11, 5-74-98;пн,ср 8.00-12.00
"МУЗ ""Тбилисская ЦРБ""";Краснодарский край;Тбилисский;ст. Тбилисская;ст. Тбилисская, ул. Первомайская, 52;45.362911;40.182949;(86158) 3-27-86, 3-21-92, 3-29-58;пн,ср 9.00-12.00
"МУЗ ""ЦРБ Темрюкского р-на""";Краснодарский край;Темрюкский;Темрюк;г. Темрюк, ул. Таманская, 69;45.279758;37.380890;(86148) 5-22-03, 5-37-14;вт,чт 10.00-13.00
"МУЗ ""Тимашевская ЦРБ""";Краснодарский край;Тимашевский;Тимашевск;г. Тимашевск, ул. Ленина, 175;45.617069;38.943100;(86130) 4-10-93, 4-12-34, 4-13-36;пн,вт 9.00-11.00
"МУЗ ""ЦГБ г. Туапсе""";Краснодарский край;Туапсенский;Туапсе;г. Туапсе, ул. Армавирская, 2;44.104375;39.071546;(86167) 2-39-46, 2-26-30;вт,чт 8.00-11.00
"МУЗ ""Успенская ЦРБ""";Краснодарский край;Успенский;с. Успенское;с. Успенское, ул. Крупской, 35;44.834572;41.391960;(86140) 5-66-62, 5-57-41;вт,чт 9.00-11.00
"МУЗ ""ЦРБ МО Щербинский р-н""";Краснодарский край;Старощербиновский;ст Старощербиновская;ст. Старощербиновская, ул. Промышленная, 1;46.628029;38.672130;(86151) 4-11-46, 4-10-57;ср 8.00-12.00
"МУЗ ""Новозыбковская ЦРБ""";Брянская область;Новозыбковский;Новозыбков;г. Новозыбков, ул. Красная, 81;52.539051;31.944860;(48343) 5-10-25, 3-29-05;вт, чт 8.00-15.15
"МУЗ ""Карачевская ЦРБ""";Брянская область;Карачевский;Карачев;г. Карачев, ул. Первомайская, 148;53.118431;34.970489;(48335) 2-40-60, 2-40-69;пн-пт 8.00-12.00
"МУЗ ""Климовская ЦРБ""";Брянская область;Климовский;пос. Климово;п.г.т. Климово, ул. Полевая, 34;52.373779;32.191681;(48347) 2-17-39;вт, чт 8.00-14.30
"МУЗ ""Унечская ЦРБ""";Брянская область;Унечский;Унеча;г. Унеча, ул. Октябрьская, 56;52.848702;32.670460;(48351) 2-25-34;вт, ср 8.30-12.30
"ГУЗ ""Центр планирования семьи и репродукции""";Москва;Москва;Москва;Севастопольский пр., 24А;55.668638;37.581072;(495) 718-20-88, 718-20-98;пн-пт  8.30 - 11.00
"ГУЗ ""Детская ГКБ Св. Владимира""";Москва;Москва;Москва;ул. Рубцовско-Дворцовая, 1/3;55.786886;37.694069;(499) 268-22-31, 268-22-80;пн-чт 9.30-12.00, пт. 9.30-11.30
"ГУЗ ""Морозовская детская ГКБ""";Москва;Москва;Москва;4-й Добрынинский пер., 1/9;55.726659;37.617722;(495) 236-24-02, 236-22-13;пн-чт 9.00-11.00
"ГУЗ ""ГКБ им. С.П.Боткина""";Москва;Москва;Москва;2-й Боткинский пр., 5;55.781323;37.554669;(499) 728-84-88;пн-пт 8.30-12.30
"ГУЗ ""ГКБ №1 им Н.И. Пирогова""";Москва;Москва;Москва;Ленинский пр-т, 8;55.726647;37.60312;(495) 236-60-69, 236-65-69;вт-пт 9.00 - 12.00
"ГУЗ ""ГБ №3 г.Москвы""";Москва;Москва;Зеленоград;г. Зеленоград, Каштановая аллея, 2 стр 1;55.983861;37.232525;(499) 735-64-29, 735-32-06;пн-пт 8.30-12.30
"ГУЗ ""ГКБ №7""";Москва;Москва;Москва;Коломенский пр., 4;55.66303;37.640165;(499) 782-30-70, 782-31-92;пн-пт 8.30 - 12.00
"ГУЗ ""ГКБ №12""";Москва;Москва;Москва;ул. Бакинская, 26;55.618644;37.654608;(495) 321-17-10;пн-пт 8.30-11.30
"ГУЗ ""ГКБ №15 им О.М.Филатова""";Москва;Москва;Москва;ул. Вешняковская, 23;55.731136;37.834026;(495) 375-13-02, 770-01-23;пн,вт,чт,пт 8.30-12.00
"ГУЗ ""ГКБ №52""";Москва;Москва;Москва;ул. Пехотная, 3;55.800758;37.48212;(499) 196-39-36, 196-21-14;пн-пт 8.30-12.30
"ГУЗ ""ГКБ №71""";Москва;Москва;Москва;Можайское шоссе, 14;55.722089;37.431396;(495) 440-20-93, 440-21-01;пн-чт 9.00-12.00
"ГУЗ МО ""Воскресенская станция переливания крови""";Московская область;Воскресенский район;Воскресенск;г. Воскресенск, Больничный проезд, 5;55.325698;38.675907;(496) 442-64-64;пн-пт 8.00-13.00
"ГУЗ МО""Орехово-Зуевская станция переливания крови""";Московская область;Орехово-Зуевский район;Орехово-Зуево;г. Орехово-Зуево, ул. Барышникова, 13/5;55.803255;39.001399;(496) 425-77-36, 425-77-90;пн-пт 8.00-15.00
"ГУЗ МО ""Щелковская станция переливания крови""";Московская область;Щелковский район;Щелково;г. Щелково, ул. Новая Фабрика, 8;55.920193;38.014228;(496) 526-47-84;пн,вт,чт,пт 8.00-11.00
"ГУЗ МО ""Наро-Фоминская станция переливания крови""";Московская область;Наро-Фоминский район;Наро-Фоминск;г. Наро-Фоминск, ул. Школьная, 1;55.388086;36.72024;(496) 344-05-17;пн,вт,чт 8.00-13.00
"МУЗ ""Волоколамская станция переливания крови""";Московская область;Волоколамский район;Волоколамск;г. Волоколамск, ул. Рижское шоссе, 41;56.025384;35.950826;(496) 362-23-80, 362-41-34;вт 8.00-13.00
"СПК-филиал МУЗ ""Ногинская ЦРБ""";Московская область;Ногинский район;Ногинск;"г. Ногинск, ул. Комсомольская, 59; СПК ул. Октябрьская, 85д";55.85618;38.451717;(496) 514-52-38, СПК: 514-33-98;пн-пт 8.00-15.00
"МУЗ ""ЦРБ"" Серпуховская станция переливания крови""";Московская область;Серпуховский район;Серпухов;"г. Серпухов, ул. Форсса, 3; СПК: ул. Комсомольская, 4";54.920775;37.4169;"(496) 735-77-85, 735-77-87; СПК: 775-13-09";пн-пт 8.00-12.00
"ГУЗ ""Московский областной онкологический диспансер""";Московская область;Балашихинский район;Балашиха;г. Балашиха-8, ул. Карбышева, 6;55.789582;37.964564;"(495) 521-46-26; ОПК: 521-56-38";пн,ср,пт 8.00-12.00
"МУ г.о. Балашиха ""ЦРБ""";Московская область;Балашихинский район;Балашиха;г. Балашиха, ш. Энтузиастов, 41;55.798141;37.967493;(495) 521-00-01, 521-24-81, 521-61-08;
"МУЗ ""Видновская РБ""";Московская область;Видное городской округ;Видное;г. Видное, ул. Заводская, 15, 17;55.553669;37.726296;(495) 541-46-12 ОПК (495) 541-97-22;вт,ср 8.00-11.30
"МУ ""Домодедовская ЦРБ""";Московская область;Домодедовский район;Домодедово;г. Домодедово, ул. Пирогова, 6;55.440574;37.747069;"(495) 996-21-36, 793-54-51; ОПК: 793-52-18";вт. 8.30-11.00
"МУЗ ""Дмитровская ГБ""";Московская область;Дмитровский район;Дмитров;г. Дмитров, ул. Больничная, 7;56.344458;37.533126;(495) 993-91-30 ОПК: 223-14-59;пн,вт 8.30-12.00
"МУЗ ""Дубненская ГБ""";Московская область;Дубна городской округ;Дубна;г. Дубна, ул. Карла Маркса, 30;56.755619;37.142864;"(496) 215-54-61, 212-33-39; ОПК: 215-71-46";вт,чт 9.00-12.00
"МУЗ ""Егорьевская ЦРБ""";Московская область;Егорьевский район;Егорьевск;г. Егорьевск, ул. Жукова Гора, 19;55.380102;39.035643;"(496) 404-35-01, 403-94-50; ОПК: 404-35-03";вт,чт 8.00-15.40
"МУ ""ГКБ г. Жуковский""";Московская область;Жуковский городской округ;Жуковский;г. Жуковский, ул. Фрунзе, 1;55.598398;38.121688;"(495) 556-22-04, 556-10-25; ОПК: 556-96-74";вт,чт 9.00-12.00
"МУЗ Сергиево-Посадского р-на ""РБ""";Московская область;Сергиево-Посадский район;Сергиев Посад;г. Сергиев Посад, Ново-Угличское ш., 62а;56.313985;38.131371;(496) 542-14-79, ОПК: 542-29-52;пн, вт 8.00-10.30
"МУ ""Зарайская ЦРБ""";Московская область;Зарайский район;Зарайск;г. Зарайск, ул. Октябрьская, 5;54.764444;38.879474;"(496) 662-51-31, 662-46-47; ОПК: 662-43-98";пн 8.00-15.00
"МУЗ ""Звенигордская ЦГБ""";Московская область;Звенигород городской округ;Звенигород;г. Звенигород, ул. Лермонтова, 6;55.737347;36.862879;(495) 597-11-20, ОПК: 327-46-78;чт,сб 9.00-12.00
"МУЗ ""Ивантеевская ЦГБ""";Московская область;Ивантеевка городской округ;Ивантеевка;г. Ивантеевка, ул. Первомайская, 39;55.977252;37.904826;"(495) 993-32-02, (496) 536-11-14; ОПК:(496) 536-13-89";вт 9.00-13.00
"МЛПУ Истринская РБ""";Московская область;Истринский район;Истра;г. Истра, ул. Урицкого, 83;55.928436;36.867646;(495) 994-50-12, ОПК: 314-60-84;вт,ср,чт 9.00-12.00
МУЗ ГБ №1 г.Королев М.О.;Московская область;Королев городской округ;Королёв;г. Королев, ул. Циалковского, 24;55.920753;37.826858;"(495) 511-54-43, 511-0454; ОПК: 511-84-53";ср 9.00-13.00
"МУ ""Каширская ЦРБ""";Московская область;Каширский район;Кашира;г. Кашира, ул. Больничная, 2;54.839519;38.159623;"(496) 692-04-96, 692-35-22; ОПК: 692-26-39";ср 8.00-12.00
"МУЗ ""Клинская ГБ""";Московская область;Клинский район;Клин;г. Клин, ул. Победы, вл. 2;56.331876;36.721702;"(496) 247-00-07, 247-00-06; ОПК: 247-00-21";вт-пт 9.00-11.30
"МУЗ ""Коломенская ЦРБ""";Московская область;Коломенский район;Коломна;г. Коломна, ул. Октябрьской революции, 318;55.091205;38.775555;"(496) 612-56-24, 612-72-22; ОПК: 615-01-45";вт,чт 8.00-12.00
"МЛПУ ""Красногорская ГБ №1""";Московская область;Красногорский район;Красногорск;г. Красногорск, ул. Карбышева, 4;55.837558;37.308;"(495) 563-82-00, 564-32-73; ОПК: 563-15-01";вт,ср 9.00-12.00
"МУ ""Луховицкая ЦРБ""";Московская область;Луховицкий район;Луховицы;г. Луховицы, ул. Мира, 39/5;54.963257;39.023752;(496) 636-19-75, ОПК: 636-24-68;ср 9.00-13.30
"МУЗ ""ЦГБ"" г.Лыткарино";Московская область;Лыткарино городской округ;Лыткарино;г. Лыткарино, ул. Коммунистическая, 63;55.576557;37.901661;(495) 552-06-82, ОПК: 552-84-77;чт 8.00-10.00
"МУЗ ""Можайская ЦРБ""";Московская область;Можайский район;Можайск;г. Можайск, ул. Амбулаторная, 1;55.504775;36.025537;"(496) 382-47-21, 382-06-76; ОПК: 382-26-32";ср 9.00-13.00
"МУЗ ""Озерская ЦРБ""";Московская область;Озерский район;Озеры;г. Озерцы, ул. Ленина, 73а;54.854991;38.526192;"(496) 702-11-55, 702-11-49; ОПК: 702-33-05";вт,чт 8.00-15.00
"МУЗ ""Одинцовская ЦРБ""";Московская область;Одинцовский район;Одинцово;г. Одинцово, ул. Маршала Бирюзова, 5;55.686061;37.260945;(495) 593-12-40, ОПК: 596-27-00;пн,ср,чт 9.00-12.00
"МУЗ ""Павлово-Посадская ЦРБ""";Московская область;Павлово-Посадский район;Павловский Посад;г. Павловский Посад, ул. Карла Маркса, 6;55.784979;38.656263;"(496) 432-34-64, 432-25-55; ОПК: 432-23-39";вт,чт 8.00-12.00
"МЛПУ ""Пушкинская РБ им. проф.Розанова В.Н.""";Московская область;Пушкинский район;Пушкино;г. Пушкино, ул. Авиационная, 35;56.017955;37.836204;"(495) 993-31-47, 993-34-19; ОПК: (496) 535-09-01";вт 9.30-13.00
"МУЗ ""Раменская ЦРБ""";Московская область;Раменский район;Раменское;г. Раменское, ул. Махова, 14;55.571146;38.221428;"(495) 556-22-37, (496) 467-22-61; ОПК: (496) 463-47-58";пн,вт 9.00-13.00
"МУЗ ""Рузская РБ""";Московская область;Рузский район;Руза;г. Руза, ул. Революционная, 21а;55.698154;36.203206;(496) 272-30-18, ОПК: 272-00-11;вт 8.00-13.00
"МУЗ ""Солнечногорская ЦРБ""";Московская область;Солнечногорский район;Солнечногорск;г. Солнечногорск, м/р Рекинцо;56.178929;37.000465;"(495) 994-14-30, (496) 264-46-35; ОПК (495) 994-15-51";вт 9.00-12.00
"МУЗ ""Ступинская ЦРКБ""";Московская область;Ступинский район;Ступино;г. Ступино, ул. Чайковского, вл.7, корп.1;54.8842;38.069481;"(496) 642-88-78, 642-03-51; ОПК: 642-35-94";вт,чт 9.00-13.00
"МУЗ ""Серебряно-Прудская ЦРБ""";Московская область;Серебряно-Прудский район;Серебрянные Пруды пос.;г. Серебряные Пруды, ул. Школьная, 4;54.466361;38.714433;(496) 673-33-96, ОПК: 673-32-91;вт,чт 8.00-12.00
"МУЗ ""Чеховская РБ №1""";Московская область;Чеховский район;Чехов;г. Чехов, ул. Московская, 85;55.149454;37.459041;"(496) 726-24-50, 723-07-90; ОПК: 726-36-23";пн,ср 8.00-12.00
"МУЗ ""Химкинская ЦГБ""";Московская область;Химкинский район;Химки;г. Химки, Ленинский пр-т, 14;55.900866;37.444725;(495) 575-87-97, ОПК: 575-85-58;вт,чт 9.00-13.00
"МУЗ ""Электростальная ЦГБ""";Московская область;Электросталь городской округ;Электросталь;г. Электросталь, ул. Пушкина, 3;55.792069;38.437339;(496) 574-71-17, ОПК: 574-71-09;вт, чт 8.00-12.00
"МУЗ ""Шатурская ЦРБ""";Московская область;Шатурский район;Шатура;г. Шатура, Больничный проезд, 2;55.575268;39.53908;"(496) 452-57-02, 452-27-45; ОПК: 452-82-42";пн,чт 8.00-11.00
"МУЗ г.о. Рошаля ""Рошальская ГБ""";Московская область;Рошаль городской округ;Рошаль;г. Рошаль, ул. Первомайская, 2;55.664932;39.856653;"(496) 455-18-79, 455-10-81; ОПК: 455-20-03";вт,чт 9.00-11.00
"МЛПУ ""Протвинская ГБ""";Московская область;Протвино городской округ;Протвино;г. Протвино, ул. Ленина, 15;54.872277;37.2179;(496) 774-24-54, ОПК: 774-29-81;вт,ср 7.00-12.00
"МУЗ ""ЦГБ им. М.В.Гольца"" г.Фрязино";Московская область;Фрязино городской округ;Фрязино;г. Фрязино, ул. Московская, 7;55.956998;38.057905;(496) 564-45-43, ОПК: 564-37-56;пн,ср 8.00-11.00
Зуевское ОПК;Кировская область;Зуевский;Зуевка;г. Зуевка, ул. Исполкомовская, 109 А;58.396999;51.144360;"телефона нет, за дополнительной информацией обращаться по телефону  ГЛПУ ""Кировская ОСПК""";пн-пт 8.00-16.00, забор крови по предварительной записи
"ГУ ""Научный Центр сердечно-сосудистой хирургии им. А.Н. Бакулева РАМН"" г. Москва";Москва;Москва;Москва;Рублевское шоссе, 135;55.761902;37.371705;(495) 414-75-70, 414-75-71;
Вязниковская областная станция переливания крови;Владимирская область;Вязниковский;Вязники;г. Вязники, ул. Вокзальная, 42;56.244820;42.129769;(49233) 2-14-50;пн-пт 8.00-16.30
Камешково;Владимирская область;Камешковский;Камешково;г. Камешково, ул. Советская, 2а;56.346512;40.993130;(09248) 2-16-12;пн-пт 8.00-16.30
Киржач;Владимирская область;Киржачский;Киржач;г. Киржач, ул. Б.проезд, 3;56.165958;38.884571;(09237) 2-19-28;пн-пт 8.00-16.30
Собинка;Владимирская область;Собинкский;Собинка;г. Собинка, ул. Ленина;55.984291;39.987511;(242) 2-28-54;пн-пт 8.00-16.30
Кинешемский филиал;Ивановская область;Кинешминский;Кинешма;г. Кинешма, ул. Гагарина, 2а;57.449749;42.132080;пн-пт 8.00-15.00;пн-пт 8.00-15.00
Шуйский филиал;Ивановская область;Шуйский;Шуя;г. Шуя, ул. Металлистов, 1в;56.862289;56.862289;(09251) 2-05-63;пн-пт 8.00 - 15.00
Вичугский  филиал;Ивановская область;Вичугский;Вичуга;г. Вичуга, ул. Ульяновская, 12;57.209480;41.920872;(09354) 2-46-56;пн-пт 8.00-15.00
Фурмановский филиал;Ивановская область;Фурмановский;Фурманов;г. Фурманов, Нижний двор-41;57.250671;41.109841;(09341) 2-10-50;пн-пт 8.00-15.00
Комсомольский филиал;Ивановская область;Комсомольский;Комсомольск;г. Комсомольск, ул. Колганова, 1;57.025330;40.378880;(09352) 2-14-01;пн-пт 8.00 - 15.00
Южский филиал;Ивановская область;Южский;Южа;г. Южа, ул. Советская, 13;56.587921;42.007229;(09347) 2-17-92;пн-пт 8.00 - 15.00
"Филиал ""Ивановский 1""";Ивановская область;Ивановский;Иваново;г. Иваново, ул. Любимова, 1;56.959250;41.027498;(4932) 56-33-49, 26-42-18;пн-пт 8.00-15.00
"Филиал ""Ивановский 2""";Ивановская область;Ивановский;Иваново;г. Иваново, ул. Любимова, 5;56.957987;41.025782;(4932) 56-63-77;пн-пт 8.00-15.00
"Экспедиция №2 ГУЗ ""Калужская областная СПК""";Калужская область;Кировский район;Киров;г. Киров, ул. Энгельса, 1;54.072899;34.309448;(48456) 5-14-11;пн-пт 8.00-12.00
"ОМУЗ ""Обоянская ЦБ""";Курская область;Обояньский;Обоянь;г. Обоянь, ул. Федоровского, 34;51.211651;36.278912;(47141) 2-12-83, 2-12-52;пн-пт  8.00 - 12.00
"МУЗ ""Грязинская ЦРБ""";Липецкая область;Грязенский;Грязи;г. Грязи, ул. Социалистическая, 5;52.493511;39.910770;(47461) 2-21-66;пн-пт 8.00-16.00
Мценский филиал;Орловская область;Мценский;Мценск;г. Мценск, ул. 20 Июля, 2а;53.288818;36.592011;(48646) 4-03-93, 2-64-18;пн-пт 8.00-13.00
Ливенский филиал;Орловская область;Ливны;Ливны;г. Ливны, ул. Капитана Филиппова, 64а;52.426170;37.617321;(48677) 2-32-93;пн-пт 8.00-13.00
"ГУЗ ""Тульская областная СПК №2""";Тульская область;Ефремовский;Ефремов;г. Ефремов, ул. Дружбы, 9Б;53.139050;38.113690;(48741) 5-56-88;пн-пт 8.00-13.00
"ГУЗ ""Тульская областная СПК №3""";Тульская область;Новомосковск городской округ;Новомосковск;г. Новомосковск, ул. Чапаева, 12-А;54.079639;38.229550;(48762) 6-31-67;пн-пт 8.00-13.30
Отделение забора крови №4;Ярославская область;Гаврилов-Ямский;Гаврилов-Ям;г. Гаврилов-Ям, ул. Северная, 5;57.303773;39.856281;(48534) 2-44-59, 2-08-09, 2-01-03;вт 8.00-12-00
Отделение забора крови №5;Ярославская область;Даниловский;Данилов;г. Данилов, ул. Карла Маркса, 64;58.18723;40.196171;(48538) 5-25-49, 5-17-38;вт 8.00-12.00
Отделение забора крови №6;Ярославская область;Ростовский;Ростов;г. Ростов, ул. Пролетарская, 23;57.200327;39.449787;(48536) 6-23-31, 3-51-81;пн, ср 8.00-12.00
"ГМУ ""Республиканская КБ""";Республика Татарстан;Казань- городской округ;Казань;г. Казань, ул. Оренбургский тракт, 138б;55.728834;49.187735;(843) 269-37-99, 269-39-98, ОПК: 268-32-38;пн-пт  8.00 - 14.00
"ГУЗ ""Краевая станция переливания крови №2""";Пермский край;Кунгурский;Кунгур;г. Кунгур, ул Красногвардейцев, 45г;57.429890;56.950008;(34271) 2-69-61;пн-пт 8.00-13.00
"МУ ""ГБ №1 им. академика Е.А. Вагнера""";Пермский край;Березниковский;Березенки;г. Березники, ул. Деменева, 12;59.401470;56.799480;(34242) 6-24-03, 6-44-84, 6-46-07;пн-пт 8.00-13.00
"ММУ ""Верещагинская РБ""";Пермский край;Верещагинский;Верещагино;г. Верещагино, ул. Октябрьская, 74;58.078602;54.663761;(34254) 3-40-60, 3-41-02;пн-пт 8.00-13.00
"МЛПУ ""Губахинская ГБ""";Пермский край;Губахский;Губаха;г. Губаха, ул. Суворова, 3;58.864891;57.603009;(34248) 4-02-41, 4-08-04;пн-пт 8.00-13.00
"ММУЗ ""Добрянская ЦРБ""";Пермский край;Добрянковский;Добрянка;г. Добрянка, ул. Герцена, 40;58.460300;56.408859;( 34265) 2-65-78, 2-85-37;пн-пт 8.00-13.00
"ГКУЗ ""Коми-Пермяцкая ОБ""";Пермский край;Кудымкарский;Кудымкар;г. Кудымкар, ул. Пирогова, 2;59.009411;54.668381;(34260) 4-15-00, 4-13-53;пн-пт 8.00-13.00
"МЛПУ ""Красновишерская РБ""";Пермский край;Красновишерский;Красновишерск;г. Красновишерск, ул. Победы, 3;60.400269;57.086712;(34243) 3-03-93, 3-03-97;пн-пт 8.00-13.00
"МУЗ ""Краснокамская ГБ""";Пермский край;Краснокамский;Краснокамск;г. Краснокамск, ул. Пушкина, 2;58.079781;55.731541;(34273) 4-16-71, 4-16-53;пн-пт 8.00-13.00
"ММУЗ ""Кизеловская ГБ""";Пермский край;Кизелский;Кизел;г. Кизел, ул. Борчанинова, 1;59.043308;57.654510;(34255) 5-14-10, 5-14-46;пн-пт 8.00-13.00
"МУЗ ""ГБ г. Лысьва""";Пермский край;Лысьвский;Лысьва;г. Лысьва, ул. Гайдара, 1;58.100380;57.804329;(34249) 2-31-36, 2-32-70;пн-пт 8.00-13.00
"МЛПУ ""ЦРБ г. Чайковского с прилегающей территорией""";Пермский край;Чайковский;Чайковский;г. Чайковский, ул. Ленина, 34/2;56.764381;54.106320;(34241) 3-39-22, 3-25-15, 3-44-17;пн-пт 8.00-13.00
"ММУ ""Чернушинская ЦРБ""";Пермский край;Чернушковский;Чернушка;г. Чернушка, ул. Коммунистическая, 16;56.502522;56.087398;(34261) 4-25-57, 4-24-59;пн-пт 8.00-13.00
"МУЗ ""Чусовская ГБ""";Пермский край;Чусовский;Чусовой;г. Чусовой, ул. Некрасова, 1;58.288189;57.826660;(34256) 5-21-93, 5-64-85;пн-пт 8.00-13.00
"МУЗ ""Соль-Илецкая ЦРБ""";Оренбургская область;Соль-Илецкий;Соль-Илецк;г. Соль-Илецк, ул. Ленинградская, 1;51.158169;54.995110;(35336) 2-72-30;пн, вт, ср 8.00-12.00
"ГУ ""Городская КБ №9""";Республика Чечня;Грозненский;Грозный;г. Грозный, ул. Тасуева, 8;43.309841;45.670391;(8712) 22-41-48;круглосуточно
"МУЗ ""Наримановская ЦРБ""";Астраханская  область;Наримановский;Нариманов;г. Нариманов, ул. Школьная, 1;46.683333;47.850000;(85171) 6-36-73, 6-10-53;вт,чт 8.00-12.00
"МУЗ ""Черноярская ЦРБ""";Астраханская  область;Черноярский;с. Черный Яр;с. Черный Яр, ул. Маршала Жукова, 1;48.060120;46.108620;(85149) 2-14-70;вт,чт 8.00-12.00
"МУЗ ""ГБ №5""";Алтайский край;Барнаул;Барнаул;г. Барнаул, Змеиногорский тракт, 75;53.354282;83.7612;(3852) 68-84-48, 68-89-30;пн-чт 9.00-12.00
"ГУЗ ""Станция переливания крови г. Рубцовска""";Алтайский край;Рубцовский район;Рубцовск;г. Рубцовск, пр. Рубцовский, 35а;51.526325;81.201611;(38558) 4-65-60;пн-пт 8.00-14.00
"МУЗ ""ЦРБ с. Завьялово""";Алтайский край;Завьяловский район;с. Завьялово;Завьяловский р-он, с. Завьялово, ул. Боровая, 51;52.836083;80.918312;(3852) 2-21-87;вт,чт 9.00-12.00
"МУЗ ""Заринская ЦРБ""";Алтайский край;Заринский район;Заринск;г. Заринск, ул. 25 Партсъезда, 40;53.70895;84.967282;(3852) 4-33-72, 7-58-66;пн-чт 9.00-12.00
"МУЗ ""ЦРБ"" муниципального образования городской округ ""Город Камень-на-Оби""";Алтайский край;Каменский район;Камень-на-Оби;г. Камень-на-Оби, ул. Гоголя, 91;53.782744;81.343135;(38514) 5-13-04;вт,чт 9.00-12.00
"МУЗ ""Славгородская ЦРБ""";Алтайский край;Славгородский район;Славгород;г. Славгород, ул. Ленина, 288;52.991706;78.647633;(38568) 5-33-08, 5-15-03;пн-чт 9.00-12.00
"МУЗ ""Троицкая ЦРБ""";Алтайский край;Троицкий район;с. Троицкое;Троицкий р-он, с.Троицкое, ул. Чапаева, 75;52.833042;84.506192;(38534) 2-21-87;вт,чт 9.00-12.00
"ГУЗ ""Прокопьевская СПК""";Кемеровская область;Прокопьевский район;Прокопьевск;г. Прокопьевск, пр. Шахтеров, 13;53.880951;86.727524;(38466) 1-26-23;пн-пт 9.00-13.00
"ГУЗ ""Междуреченская СПК""";Кемеровская область;Междуреченский район;Междуреченск;г. Междуреченск, ул. Чехова, 2;53.721619;88.068817;(38475) 2-50-56;пн-пт 8.00-14.00
"МУЗ ""ГБ №1""";Кемеровская область;Юргинский район;Юрга;г. Юрга, ул. Леонова, 3;55.734508;84.879967;(38451) 6-68-60, 4-14-40;пн-пт 8.00-12.00
"МУЗ ""ГКБ №3 им. М.А. Подгорбунского""";Кемеровская область;Кемерово;Кемерово;г. Кемерово, ул. Н. Островского, 22;55.371240;86.052395;(3842) 36-27-35;пн-пт 8.00-12.00
"МУЗ ""ЦРБ Тяжинского р-на""";Кемеровская область;Тяжинский район;пос. Тяжинский;пгт. Тяжин, ул. Октябрьская, 2;56.120491;88.518311;(38449) 2-15-56, 2-11-70;пн-пт 8.00-14.00
"МУЗ ""ЦРБ Яшкинского р-на""";Кемеровская область;Яшкинский район;п. Яшкино;пгт. Яшкино, ул. Советская, 136;55.868740;85.423210;(38455) 2-56-53, 2-58-42;вт,чт 8.30-12.00
"МУЗ ""ЦРБ Юргинского р-на""";Кемеровская область;Юргинский район;Юрга;г. Юрга, пер. Шоссейный, 8;55.734474;84.879727;(38451) 6-65-24, 6-61-36;пн,ср,пт 8.00-12.00
"МУЗ ""ГБ №4""";Кемеровская область;Новокузнецкий район;Новокузнецк;г. Новокузнецк, ул. Димитрова, 33;53.740750;87.113487;(3843) 73-49-49, 73-46-46;круглосуточно
Бердская ЦГБ;Новосибирская область;Бердск городской округ;Бердск;г. Бердск, ул. Островского, 53;54.763550;83.103447;(38341) 2-66-77;пн-чт 8.30-12.30
Искитимская ЦРБ;Новосибирская область;Искитимский район;Искитим;г. Искитим, ул. Пушкина, 52;54.640209;83.306343;(38343) 2-39-33;пн-чт 8.30-12.30
Карасукская ЦРБ;Новосибирская область;Карасукский район;Карасук;г. Карасук, ул. Гагарина, 1а;53.723190;78.057663;(38355) 3-31-18;вт,чт 8.30-12.30
Каргатская ЦРБ;Новосибирская область;Каргатский район;Каргат;г. Каргат, ул. Трудовая, 30;55.200901;80.277443;(38365) 2-25-31;вт,чт 8.30-12.30
Кочковская ЦРБ;Новосибирская область;Кочковский район;с. Кочки;с. Кочки, ул. Революционная, 35;54.333130;80.504021;(38356) 2-21-96, 2-21-52;вт,чт 8.30-12.30
Краснозерская ЦРБ;Новосибирская область;Краснозёрский район;р.п. Краснозерское;р.п. Краснозерское, ул. Ленина, 81;53.984299;79.241287;(38357) 4-31-37, 4-24-32;вт,чт 8.30-12.30
Купинская ЦРБ;Новосибирская область;Купинский район;Купино;г. Купино, ул. Лесная, 1;54.370571;77.297020;(38358) 2-38-13;вт,чт 8.30-12.30
Татарская ЦРБ;Новосибирская область;Татарский район;Татарск;г. Татарск, ул. Смирновская, 109;55.222099;75.990784;(38364) 2-08-88;вт,чт 8.30-12.30
Чановская ЦРБ;Новосибирская область;Чановский район;р.п. Чаны;р.п. Чаны, ул. Пионерская, 23;55.305420;76.767807;(38367) 2-13-96;вт,чт 8.30-12.30
"МУЗ ""Тарская ЦРБ""";Омская область;Тарский район;Тара;г. Тара, ул. Советская, 75;56.901470;74.376800;(38171) 2-04-06;вт 9.00-12.00
"МУЗ ""Называевская ЦРБ""";Омская область;Называевский район;Называевск;г. Называевск, ул. Мира, 56;55.563671;71.348930;(38161) 2-11-52;ср. 8.00-12.00
"МУЗ ""Черлакская ЦРБ""";Омская область;Черлакский район;р.п. Черлак;р.п. Черлак, ул. Транспортная, 16;54.150810;74.803413;(38153) 2-11-64;вт. 9.00-12.00
Онежский филиал;Архангельская область;Онежский;Онега;г. Онега, пр. Ленина, 80;63.908349;38.102045;(81839) 7-21-82;по предварительной записи
"МУЗ ""Кандалакшская ЦРБ""";Мурманская область;Кандалакшский;Кандалакша;г. Кандалакша, ул. Чкалова, 61;67.158028;32.420478;(81533) 7-12-28;пн-пт 8.00-13.00
"ГУЗ ""Великолукская станция переливания крови""";Псковская область;Велико Лукенский;Велкие Луки;г. Великие Луки, ул. Больничная, 4;56.346821;30.538999;(81153) 3-84-80;пн-пт 9.00-13.00, чт 15.00-18.00
Омутнинское ОПК;Кировская область;Омутнинский;Омутнинск;г. Омутнинск, ул. Спортивная, 1;58.666881;52.195099;(83352) 2-27-67;пн-пт 8.00-16.00, забор крови по предварительной записи
Яранское ОПК;Кировская область;Яранский;Яранск;г. Яранск, ул. Свободы, 59;57.307220;47.864239;(83367) 2-18-78;пн-пт 8.00-16.00, забор крови по предварительной записи
Уржумское ОПК;Кировская область;Уржумский;Уржум;г. Уржум, ул. Елкина, 91;57.109711;49.996971;(83363) 2-17-13;пн-пт 8.00-16.00, забор крови по предварительной записи
"ГУЗ ""Ленинградская областная клиническая больница""";Санкт-Петербург;Санкт-Петербург;Санкт-Петербург;г. Санкт-Петербург, пр-т Луначарского, 45;60.034966;30.359319;(812) 511-09-18;пн-чт 9.30-13.00, пт 9.30-12.00
"МУЗ ""Солецкая ЦРБ""";Новгородская область;Сольцевский;Сольцы;г. Сольцы, ул. Новгородская, 38;58.123749;30.316910;(81655) 3-14-56;раз в неделю с 9.00 - далее в зависимости от количества доноров
"МУ ""Чудовская ЦРБ""";Новгородская область;Чудовский;Чудово;г. Чудово, ул. Косинова, 6;59.121490;31.650270;(81665) 5-44-67;раз в месяц  8.00-12.00
"Филиал №1 ОГУЗ ""Братская ОСПК""";Иркутская область;Братский район;Братск;г. Братск, п. Энергетик , 5 мкр., ул. Юбилейная, д. 13;56.303760;101.677338;(3953) 33-31-93;пн-пт 8.00 - 15.30
"ГУЗ ""Волгоградская областная СПК 1""";Волгоградская область;Камышин городской округ;Камышин;г. Камышин, 11-й кв., 6;50.082580;45.392681;"(84457) 9-30-91; 9-62-77";вт-чт 8.00 - 13.00
"ГУЗ ""Волгоградская областная СПК 2""";Волгоградская область;Волжский городской округ;Волжский;г. Волжский, Поликлиника трубного завода;48.795090;44.800690;"(8443) 22-28-11; 41-58-31";пн-пт 8.00 - 13.00
"ГУЗ ""Волгоградская областная СПК 4""";Волгоградская область;Урюпинск городской округ;Урюпинск;г. Урюпинск, ул. Весенняя, 2;50.802940;42.029491;"(84442) 3-83-94; 3-83-01";пн-пт 8.00 - 13.00
"МУЗ ""ГКБ СМП №25""";Волгоградская область;Волгоград городской округ;Волгоград;г. Волгоград, ул. Землячки, 74;48.759821;44.514932;(8442) 35-07-16, 39-07-16;вт,чт 8.00-12.00
"МУЗ ""КБ СМП №15""";Волгоградская область;Волгоград городской округ;Волгоград;г. Волгоград, ул. Андижанская, 1а;48.511099;44.554773;(8442) 67-11-53, 69-71-88;вт, чт 8.00 - 12.00
"МУЗ ""ЦРБ Котовского муниципального р-на""";Волгоградская область;Котовский городской округ;Котово;г. Котово, ул. Мира, 155;50.311050;44.835362;(84455) 2-58-75;вт,чт 8.00 - 12.00
"ГУЗ ""Воронежская ОКБ №1""";Воронежская область;Воронеж городской округ;Воронеж;г. Воронеж, Московский пр-т, 151;51.718431;39.180150;(4732) 66-27-53;пн-пт 8.00 - 14.00
"Филиал №1 ""ВОСПК""";Воронежская область;Борисоглебский;Борисоглебск;г. Борисоглебск, ул. Свободы, 20;51.365940;42.080540;"(47354) 2-66-17; 3-15-39";пн-пт 8.00 - 14.00
"Филиал №2 ""ВОСПК"" БСМП";Воронежская область;Воронеж городской округ;Воронеж;г. Воронеж, Пр. Патриотов, д. 23;51.645928;39.127393;"(4732) 72-38-68; 72-39-25, эксп. 47-64-01, 63-55-05";пн-пт 8.00 - 14.00
Воронежская областная станция переливания крови;Воронежская область;Воронеж городской округ;Воронеж;г. Воронеж, ул. Транспортная, 56;51.690081;39.209449;(4732) 37-29-56;пн-пт 8.00 - 14.00
Отделение переливания крови;Еврейская АО;Ленинский;с. Ленинское;Ленинский район, с. Ленинское, ул. Калинина, 3;47.936741;132.617401;(42663) 2-12-55;пн-пт 8.00-15.30
"МУЗ ""Облученская РБ""";Еврейская АО;Облученский;Облучье;г. Облучье, ул. Кузнечная, 6;49.015122;131.054077;(42666) 4-38-20, 4-41-09, 4-34-22;пн,вт 8.00 - 12.00
"ОГУЗ ""Станция переливания крови""";Еврейская АО;Биробиджанский;Биробиджан;г. Биробиджан, ул. Пионерская, 7, 679016;48.800671;132.899139;(42622) 6-86-95;пн-пт 8.30 - 12.30
"МУЗ ""Облученская ЦРБ""";Еврейская АО;Облученский;п. Теплоозерск;Облученский район, п. Теплоозерск, ул. Калинина, 11;49.007092;131.870743;(42666) 3-24-90 , 3-14-80;пн, ср 9.00 - 12.00
"МУЗ ""Смидовичская РБ""";Еврейская АО;Смидовичский;п. Смидович;Смидовичский район, п. Смидович, ул. Советская, 37;48.601711;133.800766;(42632) 2-25-40;пн-пт 8.00 - 15.45, вт 8.00-12.00
"ГУЗ ""Краевая больница №4""";Забайкальский край;Краснокаменский район;Краснокаменск;г. Краснокаменск, мкр. 3, ГОС-3 а/я 684;50.090050;118.032578;"(30245) 4-22-76; 4-21-72";пн,ср,чт 8.00 - 12.00
"ГУЗ ""Краевая станция переливания крови""";Забайкальский край;Читинский район;Чита;г. Чита, ул. Балябина, 5;52.045259;113.493361;"(3022) 35-45-11; 35-41-66";пн-пт 8.30 - 13.00
"ГУЗ ""Краевая КБ""";Забайкальский край;Читинский район;Чита;г. Чита, ул. Коханского, 7;52.056897;113.492460;(3022) 31-43-23, 31-43-24;пн,вт,чт 10.00-12.00
"ГУЗ ""Ивановская областная станция переливания крови""";Ивановская область;Ивановский;Иваново;г. Иваново, ул. Парижской Коммуны, 5а;56.997231;40.955744;"(4932) 38-74-79; 38-65-15";пн-пт 8.00 - 15.00
"ГУЗ ""Иркутская областная станция переливания крови""";Иркутская область;Иркутский район;Иркутск;г. Иркутск, ул. Байкальская, 122;52.263246;104.309435;"(3952) 23-51-38; 22-45-80";пн-пт 8.30 - 14.30
"ОГУЗ ""Усть-Илимская областная станция переливания крови""";Иркутская область;Усть-Илимский район;Усть-Илимск;г. Усть-Илимск, ул. Карла Маркса, 22а;58.031474;102.817852;"(39535) 5-72-31; 5-38-61; 5-62-37";пн 8.00 - 11.30
"ОГУЗ ""Усольская областная станция переливания крови""";Иркутская область;Усольский район;Усолье-Сибирское;г. Усолье-Сибирское, ул. Шевченко, 7;52.752461;103.637810;(39543) 6-71-60;пн-чт 9.00 - 12.00
"Филиал №3 ОГУЗ ""Братская ОСПК"" Отделение заготовки крови г. Тулун";Иркутская область;Тулунский район;Тулун;г. Тулун, мкр. Угольщиков, 35а;54.561081;100.584953;(39530) 4-71-87, 47-1-46;пн-пт 9.00 - 14.00
"ОГУЗ ""Братская областная станция переливания крови""";Иркутская область;Братский район;Братск;г. Братск, ул. 40 Победы, 6;56.169659;101.591637;(3953) 42-09-25;пн-пт 8.00 - 12.00
"Отделение переливания крови (ГУЗ ""Иркутская ОСПК"")";Иркутская область;Иркутский район;Иркутск;г. Иркутск, мкр. Юбилейный, 100;52.219545;104.297118;(3952) 40-78-34;пн-пт 8.30 - 14.00
Кольчугино;Владимирская область;Кольчугинский;Кольчугино;г. Кольчугино, ул. Гагарина, 2;56.306469;39.372101;(09245) 2-38-11;пн-пт 8.00 - 16.30
"ГУЗ ""Волгоградский областной центр крови""";Волгоградская область;Волгоград городской округ;Волгоград;г. Волгоград, ул. Голубинская, 9а;48.712525;44.500408;(8442) 37-16-16;пн-пт 8.00 - 13.00
Ковров ЦГБ;Владимирская область;Ковровский;Ковров;г. Ковров. ул. Еловая, 6;56.386719;41.310871;(09232) 3-86-09;пн-пт 8.00 - 16.30
Судогда;Владимирская область;Судогдский;Судогда;г. Судогда, ул. Красная, 26;55.948792;40.853069;(09235) 2-11-74;пн-пт 8.00 - 16.30
Муром;Владимирская область;Муромский;Муром;г. Муром, ул. Войкова, 17;55.574291;42.051510;(09234) 3-17-85;пн-пт 8.00 - 16.30
Гусь-Хрустальный;Владимирская область;Гусь-Хрустальный;Гусь-Хрустальный;г. Гусь-Хрустальный, ул. Октябрьская, 39;55.616840;40.672661;(09241) 2-47-96;пн-пт 8.00 - 16.30
"ОПК МУЗ ""Люберецкая РБ №1""";Московская область;Люберецкий район;п. Красково;п. Красково, ул. Карла Маркса, 90;55.661824;37.983742;557-21-00, ОПК: 667-20-90;
"ОГУЗ ""Станция переливания крови г. Старый Оскол""";Белгородская область;Староосколский;Старый Оскол;г.Старый Оскол, ул.Ленина, 65;51.304901;37.856892;(4725) 22-16-51;пн-пт 8.00 - 11.30
"ОГУЗ ""Новооскольская станция переливания крови""";Белгородская область;Новоосколский;Новый Оскол;г. Новый Оскол, ул. Ливенская, 122;50.761471;37.869511;(47233) 4-20-63;пн-пт 9.00 - 13.00
"ОГУЗ ""Станция переливания крови г. Губкин""";Белгородская область;Губкинский;Губкин;г. Губкин, ул. Чайковского, 23;51.272080;37.575580;(47241) 5-14-55;вт,ср,пт 8.00 - 12.00
"МУЗ ""Валуйская ЦРБ""";Белгородская область;Валуйский;Валуйки;г. Валуйки, ул. Тимирязевская, 107;50.213268;38.101990;(47236) 3-32-68, 3-13-16;вт-чт 8.00 - 11.00
"ОГУЗ ""Белгородская областная станция переливания крови""";Белгородская область;Белгородский;Белгород;г. Белгород, ул. Гагарина, 11;50.596611;36.609211;(4722) 26-05-60;пн-пт 8.00 - 12.00
"МУЗ ""Алексеевская ЦРБ""";Белгородская область;Алексеевский;Алексеевка;г. Алексеевка, ул. Плеханова, 2;50.634239;38.714161;(47234) 3-17-22, 3-20-31;пн-пт  8.00 - 11.00
"МУЗ ""Енотаевская ЦРБ""";Астраханская  область;Енотаевский;с. Енотаевка;с. Енотаевка, ул. Советская, 7;47.243469;47.032741;(85143) 9-17-00;вт,чт 8.00 - 12.00
"МУ ""ЦГБ г.Знаменска""";Астраханская  область;Знаменский;Знаменск;г. Знаменск, ул. Мира, 2а;48.583333;45.750000;(85140) 2-82-42,  2-36-56;вт,чт 8.00 - 12.00
"МУЗ ""ГКБ №3 им С.М.Кирова""";Астраханская  область;Астраханский;Астрахань;г. Астрахань, ул. Хибинская, 2;46.363278;47.992744;(8512) 58-76-64;вт-пт 8.00 - 12.00
"ГУЗ ""Областная Астраханская станция переливания крови""";Астраханская  область;Астраханский;Астрахань;г. Астрахань, ул. Кубанская, 1б;46.328439;48.033428;"(8512) 34-66-90; 33-93-42";пн-пт 8.00 - 12.00
"ГУЗ ""Областной онкологический диспансер""";Астраханская  область;Астраханский;Астрахань;г. Астрахань, ул. Б. Алексеева, 57;46.360553;48.088102;(8512) 36-42-08;пн,ср,пт 8.00-12.00
Няндомский филиал;Архангельская область;Няндомский;Няндома;г. Няндома, ул. Фадеева, 2/7;61.672252;40.206549;(81838) 6-75-20;пн-пт 9.30 - 12.00
"ГУЗ ""Александро-Мариинская ОКБ""";Астраханская  область;Астраханский;Астрахань;г. Астрахань, ул. Татищева, 2;46.376425;48.054543;(8512) 25-32-61;вт-пт 8.00 - 12.00
"ГУЗ ""Вельская  станция переливания крови""";Архангельская область;Вельский;Вельск;г. Вельск, ул. Комсомольская, 2;61.066962;42.101830;(81836) 6-12-50;пн-пт 8.30 - 12.30
"ГУЗ ""Архангельская областная станция переливания крови""";Архангельская область;Приморский;Архангельск;г. Архангельск, пр. Ломоносова, 311;64.536911;40.565579;(8182) 27-57-50, 24-29-43;пн-пт 8.00-13.30
"ОГУЗ ""Амурская областная СПК""";Амурская область;Благовещенский;Благовещенск;г. Благовещенск, ул. Театральная, 29;50.274887;127.534146;(4162) 51-81-22;пн-пт 8.00 - 11.30
"ГУЗ ""Котласская станция переливания крови""";Архангельская область;Котлаский;Котлас;г. Котлас, ул. Мелентьева, 5;61.258710;46.693826;(81837) 3-22-10;пн-пт 8.00 - 12.00
"МУЗ ""ГБ №1""";Алтайский край;Барнаул;Барнаул;г. Барнаул, пр. Комсомольский, 73;53.356835;83.76192;"(3852) 66-95-21; 24-95-24";пн-пт 8.30 - 11.30
"КГУЗ ""Станция переливания крови г.Бийск""";Алтайский край;Бийский район;Бийск;г. Бийск, пер. Мартьянова, 44;52.541629;85.217142;(3854) 43-58-30, 43-58-40;пн-пт 8.00-14.00
"МУЗ ""Новоалтайская ГБ""";Алтайский край;Первомайский район;Новоалтайск;г. Новоалтайск, ул. Ударника, 12/6;53.404812;83.937736;(38532) 4-91-51, 4-71-87;пн-чт 9.00-12.00
"МУЗ ""Тальменская ЦРБ""";Алтайский край;Тальменский район;Тальменка;г. Тальменка, ул. Кирова, 68;53.811051;83.566761;(38591) 2-71-79;вт,чт 9.00 - 12.00
"МУЗ ""Благовещенская ЦРБ""";Алтайский край;Благовещенский район;р.п. Степное Озеро;р. п. Степное Озеро, ул. Мира, 2;52.78254;79.848518;(38564) 3-12-85, 3-13-79;вт 9.00 - 12.00
"МУЗ ""Алейская ЦРБ""";Алтайский край;Алейский район;Алейск;г. Алейск, ул. В. Олешко, 30;52.478452;82.756519;(38553) 2-21-87, 2-41-95;вт,чт 9.00 - 12.00
"ГУЗ ""Алтайский краевой онкологический диспансер""";Алтайский край;Барнаул;Барнаул;г. Барнаул, ул. Никитина, 77;53.356176;83.762693;(3852) 63-82-31, 63-26-20;вт, чт 9.30 - 12.30
"ГУЗ ""Алтайская краевая станция переливания крови""";Алтайский край;Барнаул;Барнаул;г. Барнаул, пр. Ленина, 197;53.357638;83.760706;(3852) 77-12-94, 77-12-78;пн–пт 8.00-14.00
"ГУЗ ""Владимирская областная станция переливания крови""";Владимирская область;Владимир городской округ;Владимир;г. Владимир, ул. Студенческая, д. 5;56.140242;40.382051;"(4922) 53-73-46; (4922) 53-71-00";пн-пт 8.00-16.30
"МУЗ ""ЦРБ Гурьевского р-на""";Кемеровская область;Гурьевский район;Гурьевск;г. Гурьевск, ул. Коммунистическая, 21;54.283821;85.943108;(38463) 5-44-10, 5-07-13;пн,чт 9.30 - 11.00
"МУЗ ""ЦРБ Мариинского р-на""";Кемеровская область;Мариинский район;Мариинск;г. Мариинск, 1-й микрорайон;56.213730;87.751587;(38443) 5-62-50, 5-62-95;пн-пт 8.00-14.00
"ГУЗ ЦГБ ""Станция переливания крови""";Кемеровская область;Мысковый район;Мыски;г. Мыски, б-р Юбилейный, 2;53.708641;87.801598;(38474) 2-28-39  , 2-22-40;пн-пт 8.00 - 12.00
"ГУЗ ""Анжеро-Судженская станция переливания крови""";Кемеровская область;Анжеро-Судженск городской округ;Анжеро-Судженск;г. Анжеро-Судженск, ул. Менделеева, 73;56.064411;86.023369;(38453) 5-16-47;пн-пт 8.00 - 13.00
"ГУЗ ""Беловская СПК""";Кемеровская область;Беловский район;Белово;г. Белово, ул. Юности, 18;54.376739;86.349159;(38452) 2-01-60;пн-пт 8.00-12.30
"МУЗ ""ЦГБ г. Березовский""";Кемеровская область;Березовский район;Березовский;г. Березовский, ул. Строителей, 2;55.615551;86.267242;(38445) 3-35-40, 3-33-15;пн, чт 8.00 - 12.00
"МУЗ ""ГБ №29""";Кемеровская область;Новокузнецкий район;Новокузнецк;г. Новокузнецк, пр. Советской Армии, 49;53.740750;87.113487;(3843) 53-61-02, 53-61-45;пн-пт 8.30 - 12.00
"ГУЗ ""Ленинск-Кузнецкая станция переливания крови""";Кемеровская область;Ленинск-Кузнецкий район;Ленинск-Кузнецкий;г. Л-Кузнецкий, ул. Земцова, 9;54.668171;86.179131;(38456) 7-27-37;пн-пт 8.00 - 13.00
"ГУЗ ""Новокузнецкая станция переливания крови""";Кемеровская область;Новокузнецкий район;Новокузнецк;г. Новокузнецк, ул. Кутузова, 19;53.740666;87.113600;(3843) 79-68-48;пн-пт 8.00 - 14.00
"ГУЗ ""Тверская областная станция переливания крови""";Тверская область;Калининский;Тверь;г. Тверь, ул. Тамары Ильиной, д. 20;56.838907;35.926259;(4822) 58-72-32;пн-пт 9.00-14.00
"ГУЗ ""Осинниковская СПК""";Кемеровская область;Осиннский район;Осинники;г. Осинники, 2 пер. Кирова, 6;53.606819;87.337723;(38471) 5-41-08, 5-34-92;пн-пт 9.00 - 12.00
ФГЛПУ ГНКЦОЗШ;Кемеровская область;Ленинск-Кузнецкий район;Ленинск-Кузнецкий;г. Ленинск-Кузнецкий, 7-й мкрн, 9;54.667832;86.179810;(38456) 9-55-15, 9-55-20, 9-55-28;пн-пт 8.00 - 14.00
"МУЗ ""ЦРБ Промышленновского р-на""";Кемеровская область;Промышленный район;пос. Промышленная;пгт. Промышленная, ул. Н. Островского, 78;54.913639;85.642403;(38442) 7-19-14, 7-11-84;ср 8.00 - 12.00
"МУЗ ""ЦГБ г. Таштагол""";Кемеровская область;Таштагольский район;Таштаголь;г. Таштагол, ул. Ленина, 9;52.766049;87.876198;(38473) 2-13-42, 3-30-34;пн-пт 8.00 - 12.00
"МУЗ ""ЦРБ Тисульского р-на""";Кемеровская область;Тисульский район;пос. Тисуль;п. Тисуль, ул. Октябрьская, 18;55.762001;88.315231;(38447) 2-38-30, 5-63-86;пн-пт 9.00 - 14.00
"ГУЗ ""Областная станция переливания крови""";Кемеровская область;Кемерово;Кемерово;г. Кемерово, пр. Октябрьский, 22;55.370344;86.056316;(3842) 72-13-74, 72-16-22;пн-пт 8.00 - 15.15
Калининградская ОКБ;Калининградская область;Калининградский район;Калининград;г. Калининград, ул. Клиническая, 74;54.719038;20.522434;(4012) 57-85-35;пн-пт 9.00 - 12.30
ЦГБ;Калининградская область;Калининградский район;Калининград;г. Калининград, ул. Летняя, 3;54.678148;20.488557;(4012) 64-80-12;пн-пт 8.30 - 11.00
"ГУЗ ""Калининградская областная станция переливания крови""";Калининградская область;Калининградский район;Калининград;г. Калининград, ул. Чкалова, 29;54.725897;20.459516;(4012) 93-53-75;пн-пт 7.30 - 13.30
"ГУЗ ""Калужская областная станция переливания крови""";Калужская область;Калужский район;Калуга;г. Калуга, ул. М. Горького, 71;54.514679;36.271420;(4842) 73-26-48, 54-09-48;пн-пт 8.00 - 12.00
"ОПК МУЗ ""ЦРБ Сухиничского р-на""";Калужская область;Сухиничинский район;Сухиничи;г. Сухиничи, ул. Ленина, 94;54.101170;35.352329;(48451) 5-16-36;2р. в нед. 8.00 - 12.00
"ОПК МУЗ ""ЦРБ Боровского р-на""";Калужская область;Боровский район;Боровск;г. Боровск, ул. 1 мая, 51;55.202061;36.479431;(48438) 4-10-03, 4-41-44;2р. в нед. 8.00 - 12.00
"ОПК МУЗ ""ЦРБ Малоярославецкого р-на""";Калужская область;Малоярославецкий район;Малоярославец;г. Малоярославец, ул. Чистовица, 38;55.009190;36.476108;(48431) 2-12-88, 2-22-00;2р. в нед. 8.00 - 12.00
"ГЛПУ ""Кировская областная станция переливания крови""";Кировская область;Киров городской округ;Киров;г. Киров, ул. Красноармейская, 74;58.591072;49.660091;(8332) 54-26-06, 57-91-46;пн-пт 8.00 - 16.00
Кирово-Чепецкое ОПК;Кировская область;Кирово-Чепецкий;Кирово-Чепецк;г. Кирово-Чепецк, ул. Созонтова, 3;58.549770;50.039799;"телефона нет, за дополнительной информацией обращаться по телефону  ГЛПУ ""Кировская ОСПК""";пн-пт 8.00 - 16.00, забор крови по предварительной записи
"МУЗ ""Шарьинская ЦРБ им. Каверина В.Ф.""";Костромская область;Шарьский;Шарья;г. Шарья, ул. Им. Хирурга Крылова, 1;58.366150;45.512409;(49449) 5-41-82;пн, чт 8.00 - 11.00
"ГУЗ ""Костромской центр крови-областная станция переливания крови""";Костромская область;Костромской;Кострома;г. Кострома, пр. Мира, 106;57.779409;40.953506;(4942) 55-46-91;пн-пт 8.00 - 12.00
"МУЗ ""Мантуровская ГБ""";Костромская область;Мантуровский;Мантурово;г. Мантурово, ул. Больничная, 2;58.340382;44.755852;(49446) 3-44-10;вт, чт 8.00 - 13.00
"Краевое ГУЗ ""Красноярский краевой центр крови №1""";Красноярский край;Красноярский;Красноярск;г. Красноярск, ул. Партизана Железняка, 3м;56.026330;92.908931;(391) 220-06-02;пн-сб 8.00-20.00
"Краевое ГУЗ ""Красноярский краевой центр крови №2""";Красноярский край;Норильский;Норильск;г. Норильск, ул. Московская, 13;69.330406;88.220482;(3919) 34-93-91;вт-сб 8.00 - 12.00
"ОГУЗ ""Курская областная клиническая станция переливания крови""";Курская область;Курск;Курск;г. Курск, ул. Кольцова, 11;51.716853;36.168784;(4712) 54-93-15, 54-93-17;пн-пт 8.00 - 15.00
"МУЗ ""Льговская ЦБ""";Курская область;Льговский;Льгов;г. Льгов, ул. Комсомольская, 2;51.631680;35.262260;(47140) 2-30-61;пн-пт 8.00 - 12.00
"ГУЗ ""Городская станция переливания крови""";Санкт-Петербург;Санкт-Петербург;Санкт-Петербург;Московский пр-т, 104;59.895506;30.320481;(812) 635-68-70, 388-18-55;пн-пт: 8.30 - 11.00, каждая третья суббота месяца: с 9.00 до 12.00
"ГУЗ Ленинградская областная станция переливания крови (ГУЗ ""ЛОСПК"")";Ленинградская область;Тосненский район;Тосно;Тосненский район, г. Тосно, ул. Барыбина, 29а;59.541506;30.879421;"(81361) 3-24-33; 2-27-54";пн-пт 8.00 - 16.30
"Филиал №1 ГУЗ ""ЛОСПК""";Ленинградская область;Всеволожский район;Всеволжск;Всеволжский район, г. Всеволожск, Колтушское шоссе, д. 20;60.030095;30.639782;(81370) 2-34-31;третий вт каждого месяца 10.00-12.00
"Филиал №2 ГУЗ ""ЛОСПК""";Ленинградская область;Выборгский район;Выборг;Выборгский район, г. Выборг, ул. Октябрьская, д. 2;60.706397;28.770933;(81378) 2-51-45;пн,ср 8:30-10:00
"ГУЗ ""Липецкая областная станция переливания крови""";Липецкая область;Липецк;Липецк;г. Липецк, ул. Космонавтов, 11а;52.674111;39.731010;(4742) 34-63-84, 34-80-80;пн-сб 8.00 - 16.00
"МУ ""ЦРБ Усманского района""";Липецкая область;Усманский;Усмань;г. Усмань, ул. Карла Маркса, 118;52.052292;39.732288;(47472) 2-27-45, 2-11-35;пн-пт 8.00 - 16.00
"МУЗ ""Елецкая городская станция переливания крови""";Липецкая область;Елецкий;Елец;г. Елец, ул. Костенко, 9;52.622028;38.505261;"(47467) 2-46-82; 2-03-78";пн-пт 8.00 - 16.00
Центр крови ФМБА России;Москва;Москва;Москва;ул. Щукинская, 6, корп. 2;55.81004;37.479554;(499) 190-75-55, донорский отдел: 193-17-73, экспедиция: 193-75-81 (круглосуточно), 942-47-67;пн-пт 8.30 - 12.00
ГНЦ РАМН;Москва;Москва;Москва;Новый Зыковский пр-д, 4а;55.800266;37.552792;(495) 612-35-33;пн-пт 9.00 - 12.30
Городская клиническая больница № 1;Москва;Москва;Москва;Ленинский пр-т, 10;55.722543;37.593535;(495) 958-61-00;вт-пт 8.00
"ГУЗ НИИ скорой помощи им. Н.В.Склифосовского""";Москва;Москва;Москва;Б. Сухаревская пл., 3, стр 12;55.7732;37.634074;(495) 625-80-07;пн-пт 8.30 - 11.30
Станция переливания крови Департамента здравоохранения города Москвы, филиал;Москва;Москва;Москва;ул. Бакинская, 31;55.617075;37.660198;"(495) 326-99-29; 327-27-47";пн-пт 8.30 - 12.30
Станция переливания крови Департамента здравоохранения города Москвы, филиал;Москва;Москва;Москва;ул. Поликарпова, 14;55.777939;37.550588;(495) 945-71-49, 945-75-45;пн-пт 8.30 - 13.30
ФГУ ЦСПК Росздрава;Москва;Москва;Москва;1-й Басманный пер., 8;55.771297;37.663911;(495) 607-25-57;пн-пт 8.30 - 13.30
"ГУЗ ""ГКБ № 20""";Москва;Москва;Москва;ул. Ленская, 15;55.864807;37.664023;(495) 471-10-44;пн-пт 9.00 - 11.00
"ГУЗ ""ГКБ №40""";Москва;Москва;Москва;ул. Касаткина, 7;55.825089;37.657312;(495) 686-80-50, 686-31-28;пн-пт 9.00 - 11.00
"ГУЗ ""ГКБ № 70""";Москва;Москва;Москва;Федеративный пр-т, 17;55.756277;37.814446;(495) 304-42-16, 303-97-69;пн-чт 8.00 - 11.30
"МУЗ ""Моздокская РБ""";Республика Северная Осетия (Алания);Моздокский;Моздок;г. Моздок, ул. Мира, 2;43.741890;44.662750;(86736) 3-17-32,  3-15-51, 3-50-55;пн-пт 9.00-14.00
Российская детская клиническая больница;Москва;Москва;Москва;Ленинский пр-т., 117, корп. 3, 2 этаж;55.65013;37.491711;(495)434-76-35,936-93-05, 936-94-05;пн-пт 9.00 - 11.00
"ГУЗ ""Магаданская областная станция переливания крови""";Магаданская область;Магадан;Магадан;г. Магадан, ул. Потапова, 2;59.556320;150.813080;(4132) 62-82-09;пн-пт 8.30 - 12.00
"ГУЗ ""Магаданский областной противотуберкулезный диспансер №2""";Магаданская область;Ягодинский;пос. Дебин;Ягодинский р-н, п. Дебин, ул. Советская, 11;62.343281;150.747757;(41343) 2-32-89, 4-44-49;вт 8.30-12.00
"МУЗ ""Омсукчанская ЦРБ""";Магаданская область;Омсукчанский;пос. Омсукчан;п. Омсукчан, ул. Театральная, 7;62.516602;155.765442;(41346) 9-15-23, 9-19-51;чт 1 раз в мес. 8.30-12.00
"МУЗ ""Сусуманская ЦРБ""";Магаданская область;Сусуманский;Сусуман;г. Сусуман, ул. Больничная, 65;62.777310;148.148041;(41345) 2-27-89, 2-11-65;вт 8.30 - 12.00
"МУЗ ""Люберецкая СПК""";Московская область;Люберецкий район;Люберцы;г. Люберцы, Октябрьский пр-т, 64;55.687169;37.873431;(496) 559-63-22;пн-чт 8.00 - 12.00
"ГУЗ ""Мурманская областная станция переливания крови""";Мурманская область;Мурманск;Мурманск;г. Мурманск, ул. Павлова, 6 корп. 10;68.951857;33.103781;(8152) 25-02-61, 25-04-02;пн-пт 8.00 - 13.00
"МУЗ ""Мончегорская ЦГБ""";Мурманская область;Мончегорский;Мончегорск;г. Мончегорск, пр-т. Кирова, 6;67.922996;32.952728;"(81536) 7-34-87; 3-07-00";пн-пт 8.00 - 13.00
"МУЗ ""Печенегская ЦРБ""";Мурманская область;Никельский;Никель;п. Никель, Больничный городок, 1;69.402008;30.231079;(81554) 5-03-92;пн-пт 8.00 - 13.00
"ГУЗ ""Нижегородская областная станция переливания крови Н.Я.Климовой""";Нижегородская область;Нижний Новгород;;г. Нижний Новгород, ул. Родионова, 194, инд. 603950;56.303349;44.081214;(8314)32-88-80;пн-пт 8.00 - 16.00
"Филиал ""Ардатовское отделение переливания крови""";Нижегородская область;Ардатовский;пос. Ардатов;р. п. Ардатов, ул. Спортивная, 1;55.235729;43.096130;(83179) 5-23-00;пн, чт 8.00 - 10.00
"Филиал ""Арзамасская станция переливания крови""";Нижегородская область;Арзамасский;Арзамас;г. Арзамас, ул. Зеленая, 2;55.411714;43.808928;(83147) 6-06-43;пн, вт, чт 8.00 - 10.00
"Филиал ""Балахнинское отделение переливания крови""";Нижегородская область;Балахинский;Балахна;г. Балахна, ул. Энгельса, 94,96;56.480728;43.540390;(83144) 7-49-05;вт, чт 7.30 - 9.30
"Филиал ""Богородское отделение переливания крови""";Нижегородская область;Богородский;Богородск;г. Богородск, ул. М. Горького, 2а;56.099628;43.507340;(83170) 2-20-35;вт 7.00 - 10.00
"Филиал ""Велтужное отделение переливания крови""";Нижегородская область;Ветлужский;Ветлуга;г. Ветлуга, ул. Ленина, 50;57.852878;45.787708;(83150) 2-17-30;вт 9.00 - 10.00
"Филиал ""Воротынское отделение переливания крови""";Нижегородская область;Воротынский;р. п. Воротынец;р. п. Воротынец, ул. Космонавтов, 9, корп. 1;56.054741;45.858471;(83164) 2-12-45;вт 8.30 - 11.00
"Филиал ""Выксунское отделение переливания крови""";Нижегородская область;Выкский;Выкса;г. Выкса, ул. Красных зорь, Больничный городок,;55.319511;42.173000;(83177) 3-05-41;вт, чт 8.00 - в зависимости от количества доноров
"Филиал ""Дальнеконстантиновское отделение переливания крови""";Нижегородская область;Дальнее Константиново;р. п. Дальнее Константиново;р. п. Дальнее Константиново, ул. Пионерская, 1а;55.810341;44.111820;(83168) 2-14-75;ср 9.00 - 12.00
"Филиал ""Дзержинская станция переливания крови""";Нижегородская область;Дзержинский;Дзержинск;г. Дзержинск, ул. Бутлерова, 2г;56.240250;43.456764;(8313) 22-78-83;пн-пт 7.00 - 10.30
"Филиал ""Краснобаковское отделение переливания крови""";Нижегородская область;КрасноБакский;Красные Баки;р. п. Красные Баки, ул. Чапаева, 25;57.129722;45.156111;(83156) 2-23-60;вт 8.00 - 15.30
"Филиал ""Кулебакское отделение переливания крови""";Нижегородская область;Кулебакский;Кулебаки;г. Кулебаки, ул. Степана Разина, 112;55.415500;42.529251;(83176) 5-18-06;вт, чт 8.00
"Филиал ""Лукояновское отделение переливания крови""";Нижегородская область;Лукояновский;Лукоянов;г. Лукоянов, ул. Куйбышева, 14;55.038262;44.497891;(83196) 4-17-99;вт 9.30 - в зависимости от количества доноров
"Филиал ""Лысковское отделение переливания крови""";Нижегородская область;Лысковский;Лысково;г. Лысково, ул. Чехова, 41;56.012699;45.025341;(83149) 2-35-18;вт 8.30 - 11.00
"Филиал ""Навашинское отделение переливания крови""";Нижегородская область;Навашинский;Навашино;г. Навашино, ул. Терёшкина, 6;55.551750;42.191849;(83175) 5-36-36;вт, чт 8.00 - в зависимости от количества доноров
"Филиал ""Павловское отделение переливания крови""";Нижегородская область;Павловский;Павлово;г. Павлово, ул. Советская, 24;55.961948;43.089901;(83171) 5-18-67;вт 8.30 - в зависимости от количества доноров
"Филиал ""Починовское отделение переливания крови""";Нижегородская область;Починский;с. Починки;с. Починки, ул. Луначарского, 45;54.705280;44.864681;(83197) 2-21-91;пн, ср 9.30 - в зависимости от количества доноров
"Филиал ""Семеновское отделение переливания крови""";Нижегородская область;Семеновский;Семенов;г. Семенов, ул. 3-й Интернационал, 20;56.792542;44.501011;(83162) 5-38-41;нет приема доноров
"Филиал ""Сергачская станция переливания крови""";Нижегородская область;Сергачевский;Сергач;г. Сергач, ул. Пушкина, 2а;55.527538;45.463200;(83191) 5-25-58;по записи
"Филиал ""Сосновское отделение переливания крови""";Нижегородская область;Сосновский;пос. Сосновское;р. п. Сосновское, ул. Профсоюзная, 24;55.801041;43.162869;(83174) 2-58-29;ср 9.00 - 10.00
"Филиал ""Уренское отделение переливания крови""";Нижегородская область;Уреньский;Урень;г. Урень, ул. Ленина, 59;57.460781;45.784988;(83154) 2-23-60;информация по тел. (83154) 2-23-60
"Филиал ""Шахунское отделение переливания крови""";Нижегородская область;Шахуньский;Шахунья;г. Шахунья, ул. Революционная, 32;57.668190;46.600861;(83152) 2-69-42;чт 8.00 - 10.00
"ММУ ""Боровичская станция переливания крови""";Новгородская область;Боровичский;Боровичи;г. Боровичи, ул. Подбельского, 23;58.395149;33.901009;(81664) 4-31-79;чт 8.00 - 11.00
"ММУ ""Валдайская ЦРБ""";Новгородская область;Валдайский;Валдай;г. Валдай, ул. Песчаная, 1а;57.979710;33.253460;(81666) 2-25-70;пн,чт 9.00 - 10.00
"ММУ ""Пестовская ЦРБ""";Новгородская область;Пестовская;Пестово;г. Пестово, ул. Курганная, 18;58.600239;35.812549;(81669) 5-23-42;ср 8.00 - 12.00
"ММУ ""Старорусская ЦРБ""";Новгородская область;Старая Русса;Старая Русса;г. Старая Русса, ул. Ф.Энгельса, 50;57.999630;31.336069;(81652) 3-26-50 , 5-17-95;вт,чт 8.00 - 10.30
ГБУЗ Куйбышевский филиал;Новосибирская область;Куйбышевский район;Куйбышев;г. Куйбышев, ул. Володарского, 61;55.454029;78.304626;(38362) 6-66-70, 6-22-04;пн-пт  8:00 - 12:30
"ГБУЗ ""Новосибирский центр крови""";Новосибирская область;Новосибирский городской округ;Новосибирск;г. Новосибирск, ул. Серафимовича, 2/1;54.984632;82.879309;(383) 354-58-83, 353-79-19;пн-пт 8.00 - 12.30
Сузунская ЦРБ;Новосибирская область;Сузунский район;р.п. Сузун;р.п. Сузун, ул. Партизанская, 214;53.785210;82.323891;(38346) 2-24-73;вт, чт 8.30 - 12.30
Баганская ЦРБ;Новосибирская область;Баганский район;с.Баган;с. Баган, ул. Инкубаторская, 3;54.099220;77.662628;(38353) 2-13-32, 2-16-97;вт,чт 8.30 - 12.30
Чистозерская ЦРБ;Новосибирская область;Чистоозёрный район;р.п. Чистоозерное;р.п. Чистоозерное, ул. Зонова, 6;54.717159;76.581490;(38368) 9-16-89;вт,чт 8.30-12.30
"ГУЗ ""Центр крови""";Омская область;Омск;Омск;г. Омск, ул. Магистральная, 33;55.035991;73.275719;(3812) 67-05-21;пн-пт  8.00-11.30
Калачинский филиал;Омская область;Калачинский район;Калачинск;г. Калачинск, ул. Больничная, 14;55.052189;74.584953;(38155) 2-38-30;ср,чт,пт 8.30-11.00
"ГУЗ ""Областная детская КБ""";Омская область;Омск;Омск;г. Омск, ул. Куйбышева, 77;54.978870;73.399841;(3812) 36-22-20;ремонт
"МУЗ ""Большереченская ЦРБ""";Омская область;Большереченский район;пос. Большеречье;р.п. Большеречье, ул. Пролетарская, 83;56.081711;74.632553;(38169) 2-10-03;вт 9.00-12.00
"МУЗ ""Омская ГКБ СМП №1""";Омская область;Омск;Омск;г. Омск, ул. Перелета, 9;54.998469;73.296264;(3812) 74-24-29;пн-пт 8.30 - 11.30
"МУЗ ""Крутинская ЦРБ""";Омская область;Крутинский район;р.п. Крутинка;р.п. Крутинка, пер. Больничный, 21;55.999680;71.518333;(38167) 2-11-98;вт,чт 8.30 - 11.30
"МУЗ ""ГКБ №1 им. А.Н.Кабанова""";Омская область;Омск;Омск;г. Омск, ул. Перелета, 7;54.996204;73.293357;(3812) 74-42-17;пн-пт 9.00 - 11.00
Шербакульский филиал;Омская область;Шербакульский район;р.п. Шербакуль;р.п. Щербакуль, ул. Ленина, 111;54.635071;72.388382;(38177) 2-33-66;вт,чт  8.00 - 12.00
"ГУЗ ""ОКБ""";Омская область;Омск;Омск;Омск г., Березовая ул., д. 3;55.021405;73.340778;(3812) 23-26-74, 25-66-68;пн-пт 9.00-13.00
"МУЗ ""Исилькульская ЦРБ""";Омская область;Исилькульский район;Исилькуль;г. Исилькуль, ул. Тельмана, 187;54.905880;71.262177;(38173) 2-12-47;вт 8.30 - 12.00
"МУЗ ""Муромцевская ЦРБ""";Омская область;Муромцевский район;р.п. Муромцево;р.п. Муромцево, ул. Ленина, 144;56.367371;75.240051;(38158) 2-19-48;пн, вт 9.00-11.00
Филиал Омский-1;Омская область;Омск;Омск;г. Омск, ул. Воровского, 62/1;54.915229;73.356142;(3812) 46-96-24;ср 9.00 - 13.00
ГУЗ Орского района;Оренбургская область;Орский;Орск;г. Орск, ул. Ленинского комсомола, 24а;51.218380;58.620380;(3537) 25-04-08;пн-пт 8.00 - 14.00
"ГУЗ ""Краевая КБ №2""";Приморский край;Владивосток;Владивосток;г. Владивосток, ул. Русская, 55;43.175214;131.926174;(4232) 32-64-07, 32-70-09;пн,ср,чт 9.00 - 12.00
Советское ОПК;Кировская область;Советский;Советск;г. Советск, ул. Октябрьская, 70;57.584518;48.941620;(83375) 2-62-31;пн-пт 8.00-16.00, забор крови по предварительной записи
Нолинское ОПК;Кировская область;Нолинский;Нолинск;г. Нолинск, ул. Федосеева, 2 Б;57.560879;49.934090;(83368) 2-05-00;пн-пт 8.00-16.00, забор крови по предварительной записи
"ГУЗ ""Краевая станция переливания крови""";Приморский край;Владивосток;Владивосток;г. Владивосток, ул. Октябрьская, 6;43.126872;131.884289;(4232) 45-93-14, 45-93-77, 45-93-80, 45-08-67;пн-чт  8.30 - 17.15, пт 8.30-16.00
"МУЗ ""Среднеканская ЦРБ""";Магаданская область;Среднеканский р-он;пос. Сеймчан;Среднеканский р-он, п. Сеймчан, ул. Южная, 13;62.930809;152.384872;(41347) 9-48-47, 9-46-62;чт 1 раз в мес. 8.30-12.00
"ГУЗ ""Областная детская КБ №1""";Свердловская область;Екатеринбург;Екатеринбург;г. Екатеринбург, ул. С.Дерябиной, 32;56.809493;60.536750;(343) 240-57-80, 240-58-01;пн-пт 8.00 - 14.00
"ГУЗ ""Свердловская областная станция переливания крови""";Свердловская область;Первоуральск городской округ;Первоуральск;г. Первоуральск, ул. Медиков, 10;56.923050;59.942200;"(3439) 66-79-64; 66-74-43";пн-пт 7.30 - 14.00
"ГУЗ ""Станция переливания крови №3""";Свердловская область;Горнозаводской управленческий округ;Нижний Тагил;г. Нижний Тагил, ул Циолковского, 24/49;57.933333;60.000000;(3435) 42-25-70, 41-98-04;пн-пт 8.00-16.30
"ГУЗ ""Станция переливания крови №5""";Свердловская область;Краснотурьинск городской округ;Краснотурьинск;г. Краснотурьинск, ул. Фурманова, 3;59.763851;60.205490;(34384) 3-32-93;пн-пт 8:00 - 13:00
"ГУЗ ""Тамбовская областная станция переливания крови""";Тамбовская область;Тамбовский;Тамбов;г. Тамбов, ул. Б. Васильева, д. 3;52.721100;41.417351;(0752) 47-33-15;пн-пт 8.00-16.00
"ГУЗ ""Тульская областная СПК №1""";Тульская область;Тула;Тула;г. Тула, ул. Ф. Энгельса, 56;54.180779;37.598971;(4872) 31-22-63;пн-пт 8.00-14.00
"ГЛПУ ""Областная станция переливания крови""";Тюменская область;Тюменский;Тюмень;г. Тюмень, ул. Энергетиков, 35;57.142212;65.582757;(3452) 28-77-50, 28-77-65;пн-пт 8.00-13.00
"ГУЗ ""Адыгейская республиканская станция переливания крови""";Республика Адыгея;Майкопский;Майкоп;г. Майкоп, ул. 12 марта, 163;44.609139;40.113209;(8772) 57-30-89;пн-пт 8.00-12.00
"ГУЗ ""Республиканская станция переливания крови""";Республика Карелия;Петрозаводск;Петрозаводск;г. Петрозаводск, Пирогова, 4а;61.782200;34.362080;(8142) 76-42-60;пн-пт 8.30-13.00
"МУЗ ""ПИй-Хемская ЦКб""";Республика Тыва;Пий-Хемский кожуун;Туран;г. Туран, ул. Горная, 14;52.145489;93.916122;(39435) 2-18-49;пн-пт 8.00-17.00
"ГУЗ ""Республиканская станция переливания крови""";Республика Марий Эл;Йошкар-Ола;Йошкар-Ола;г. Йошкар-Ола, ул. Пролетарская, д. 66;56.637501;47.891499;(8362) 45-44-00;пн-пт 8.00-12.00
"МУЗ ""Черногорская ГБ №2""";Республика Хакасия;Черногорск городской округ;Черногорск;Черногорск, ул. Чайковского, 9;53.826840;91.301827;(39031) 2-28-69;пн-чт 7.30 - 12.00
"ГУЗ ""Республиканская станция переливания крови""";Республика Башкортостан;Уфимский;Уфа;г. Уфа, ул. Батырская, 41/1;54.709257;56.008612;(3472) 55-52-75, 55-53-12;пн-пт 8.30 - 13.00
"ГУЗ ""Бурятская республиканская станция переливания крови""";Республика Бурятия;Улан-Удэ;Улан-Удэ;г. Улан-Удэ, ул. Пирогова, 7а;51.840839;107.608093;(3012) 23-23-47, 43-75-61, 43-70-17;пн-пт 8.00 - 16.30
Гусиноозерский филиал;Республика Бурятия;Гусиноозерский;Гусиноозерск;г. Гусиноозерск, ул. Железнодорожная, 1;51.284081;106.526383;(30145) 4-47-76;пн-чт 8.00 - 16.30
Нижнеангарский филиал;Республика Бурятия;Северобайкальский район;п. Нижнеангарск;Северобайкальский р-н, п. Нижнеангарск, ул. 50 лет Октября, 4;55.789711;109.590599;(30130) 4-77-83;пн-ср 8.00 - 16.30
"ГУЗ ""Самарская областная станция переливания крови""";Самарская область;Самара;Самара;г. Самара, ул. Ново-Садовая, 156;53.223096;50.166793;(846) 334-82-43, 334-65-14, 334-65-23;пн-пт 8.00 - 13.00
"ГУЗ ""Саратовская областная станция переливания крови""";Саратовская область;Саратов городской округ;Саратов;г. Саратов, ул. Гвардейская, 27;51.588774;45.923043;(8452) 35-20-51, 63-76-03;пн-пт 8.30-12.00
"ГУЗ ""Станция переливания крови №2"" ""Сангвис""";Свердловская область;Екатеринбург;Екатеринбург;г. Екатеринбург, ул. Пальмиро Тольятти, 8;56.823124;60.584563;(343) 233-46-61, 223-65-10, 212-93-08;пн-пт 8.00 - 13.00
"ГУЗ ""Свердловская ОКБ №1""";Свердловская область;Екатеринбург;Екатеринбург;г. Екатеринбург, ул. Волгоградская, 185;56.809593;60.563308;(343) 240-35-35, 240-47-56;пн-пт 8.30-12.30
"ГУЗ ""Вологодская областная станция переливания крови № 1""";Вологодская область;Вологодский;Вологда;г. Вологда, ул. Ветошкина, 55;59.208568;39.895992;+7 (817) 275 01 67, 275-11-31;пн-пт 8.00-12.00
"ГУ ""Республиканская станция переливания крови""";Республика Коми;Сыктывкар;Сыктывкар;г. Сыктывкар, Октябрьский пр., д. 59а;61.665766;50.814686;(8212) 24-27-94, 43-11-18;пн-пт 7.00-13.00
"ГУЗ ""Краевая КБ №2""";Хабаровский край;Хабаровский;Хабаровск;г. Хабаровск, ул. Павловича, 1-б;48.470730;135.091238;"(4212) 23-79-67; 23-39-58, 23-80-48";пн-пт 8.30-13.30
"ГУЗ ""Верхнебуреинский центр организации специализированных видов медицинской помощи""";Хабаровский край;Верхнебуреинский;п. Чегдомын;Верхнебуреинский р-он, п. Чегдомын, ул. Софийская, 2;51.116901;132.977478;(42149) 5-16-33;пн-пт 9.00-13.30
"ГУ ""Республиканская станция переливания крови""";Республика Чечня;Грозненский;Грозный;г. Грозный, ул. Киевская, 47;43.310581;45.672419;(8712) 33-21-38;пн-пт 8.00 - 17.00
"ГУЗ ""Чукотская окружная больница""";Чукотский АО;Анадырь;Анадырь;г. Анадырь, ул. Ленина, 1;64.736392;177.477894;(42722) 2-32-27, 2-20-42;пн,чт 9.00 - 11.00, вт,ср 9.00-14.00
"МУЗ ""Новочебоксарская ГБ""";Чувашская Республика;Новочебоксары;Новочебоксары;г. Новочебоксарск, ул. Пионерская, 20;56.113079;47.4856;(83527) 7-28-20;вт, чт 8.00-11.00
"ГУЗ ""Рыбинская станция переливания крови""";Ярославская область;Рыбинский;Рыбинск;г. Рыбинск, ул. Солнечная, 59;58.050871;38.833523;(4855) 55-89-58;пн-пт 8.00 - 13.00
"ГУЗ ""ОКБ""";Ярославская область;Ярославль;Ярославль;г. Ярославль, ул. Яковлевская, 7;57.657947;39.967518;"(4852) 24-47-79; 24-16-52";пн-чт 9.00 - 13.00, пт 9.00-11.00
Отделение забора крови №1;Ярославская область;Ярославль;Ярославль;г. Ярославль, ул. Гагарина, 12;57.591086;39.842491;(4852) 44-28-43;вт,чт 8.00-12.00
"МУЗ ""Кировская ЦГБ""";Мурманская область;Кировский;Кировск;г. Кировск, пр. Ленина, 26-б;67.632599;33.723980;(81531) 5-02-00;пн-пт 8.00 - 13.00
"МУЗ ""Ковдорская ЦРБ""";Мурманская область;Ковдорский;Ковдор;г. Ковдор, ул. Кошица, 11;67.568321;30.485580;(81535) 7-12-81, 7-46-66;пн-пт 8.00-13.00
"МУЗ ""ЦГБ г. Оленегорск""";Мурманская область;Оленегорский;Оленегорск;г. Оленегорск, ул. Строительная, 20;68.154900;33.235561;(81552) 5-11-08;пн-пт 8.00-13.00
"МУЗ ""ЦРБ ЗАТО г.Североморск""";Мурманская область;Североморский;Североморск;г. Североморск, ул. Колышкина, 5;69.067513;33.430882;(81537) 5-36-04, 5-00-29, ОПК: 5-07-00;пн-пт 8.00 - 13.00
Станция переливания крови;Орловская область;Орловский;Орел;г. Орел, Наугорское шоссе, 2;52.986652;36.042833;(4862) 41-78-98, 41-58-82;пн-пт 8.00 - 13.00
"ГУЗ ""Санкт-Петербургская городская Александровская больница""";Санкт-Петербург;Санкт-Петербург;Санкт-Петербург;пр-т. Солидарности, 4;59.927338;30.489181;(812) 583-16-23, 589-11-41;вт,чт 9.00 - 12.00, ср 9.00-19.00
"ГУЗ ""Санкт-Петербургская ГБ №5""";Санкт-Петербург;Санкт-Петербург;Санкт-Петербург;ул. Авангардная, 4;59.840786;30.182143;(812) 735-07-66;пн-пт 9.00 - 12.00
"ГУЗ ""Санкт-Петербургская ГБ №26""";Санкт-Петербург;Санкт-Петербург;Санкт-Петербург;ул. Костюшко, 2;59.849205;30.295182;(812) 723-32-28, 723-32-24;пн,ср,чт 9.00 - 12.00
"ГУЗ ""Санкт-Петербургская  ГБ Святой Преподобномученицы Елизаветы""";Санкт-Петербург;Санкт-Петербург;Санкт-Петербург;ул. Вавиловых, 14;60.024483;30.391399;(812) 555-15-05, 555-57-73;пн 15.00 - 19.00,  вт-пт 9.00 - 11-2.00
"ГУЗ ""Санкт-Петербургская городская многопрофильная больница №2""";Санкт-Петербург;Санкт-Петербург;Санкт-Петербург;Учебный пер., 5;60.037292;30.336231;(812) 513-64-54, 510-79-31;пн-пт 9.00-12.00
"ГУЗ ОПК ""Санкт-Петербургская городская Мариинская больница""";Санкт-Петербург;Санкт-Петербург;Санкт-Петербург;Литейный пр-т., 56;59.935283;30.350629;(812) 275-74-55;пн,ср,чт 9.00 - 12.00
"ГУЗ ""Санкт-Петербургская ГБ Святого Великомученика Георгия""";Санкт-Петербург;Санкт-Петербург;Санкт-Петербург;Северный пр-т, 1;60.02936;30.327626;(812) 511-96-00, 510-95-00;пн,вт,ср,пт 9.00-12.00
"ГУЗ ""Санкт-Петербургская детская инфекционная больница №5 им. Н.Ф. Филатова""";Санкт-Петербург;Санкт-Петербург;Санкт-Петербург;ул. Бухарестская, 134;59.839062;30.42116;(812) 776-18-18, 708-16-34;пн-пт 9.00-12.00
"ГУЗ ""Курганская областная станция переливания крови""";Курганская область;Курган;Курган;г. Курган, ул. Ленина, д. 40-а;55.453689;65.342323;(3522) 46-63-96;пн-пт 9.00-13.00
"МУЗ ""Белоярская ЦРБ""";Ханты-Мансийский АО;Белоярский;Белоярский;г. Белоярский, ул. Барсукова, 6;63.709026;66.670475;(34670) 2-48-05;пн-пт 9.00 - 13.00
"МУ ""ГБ г. Лангепас""";Ханты-Мансийский АО;Лангепас;Лангепас;г. Лангепас, ул. Ленина, 13;61.265166;75.163937;(34669) 2-54-52;пн-пт 9.00 - 13.00
"МЛПУ ""ГБ г.Мегион""";Ханты-Мансийский АО;Мегион;Мегион;г. Мегион, ул. Заречная, 6;61.051024;76.112881;(34663) 3-69-83, 3-29-76;пн-пт 9.00 - 13.00
"БУ ""Нефтеюганская станция переливания крови""";Ханты-Мансийский АО;Нефтеюганский;Нефтеюганск;г. Нефтеюганск, мкр. 16, 12, пом. 1;61.103161;72.603092;(3463) 25-65-33;пн-пт 9.00 - 13.00
"БУ ""Нижневартовская станция переливания крови""";Ханты-Мансийский АО;Нижневартовский;Нижневартовск;г. Нижневартовск, ул. Пермская, 1-Б;60.949493;76.554737;(3466) 45-91-15, 45-99-86;пн-пт 9.00 - 13.00
"МУЗ ""Советская ЦРБ""";Ханты-Мансийский АО;Советский;Советский;г. Советский, ул. Киевская, 33;61.368485;63.540745;(34675) 3-11-83, 3-71-18;пн-пт 9.00 - 13.00
"МУЗ ""Центральная городская больница г. Покачи""";Ханты-Мансийский АО;Покачи;Покачи;г. Покачи, ул. Мира, 18;61.722842;75.368843;(34669) 7-24-08, 7-23-23;пн-пт 9.00 - 13.00
"МУЗ ""Центральная городская больница г. Радужный""";Ханты-Мансийский АО;Радужный;Радужный;г. Радужный, 2-ой мкр., 31;62.109761;77.477531;(34668) 3-78-71;пн-пт 9.00 - 13.00
"МУ ""ЦГБ г. Урай""";Ханты-Мансийский АО;Урай;Урай;г. Урай, ул. Ленина, 96;60.134376;64.806576;(34676) 2-11-23, 3-20-49;пн-пт 9.00 - 13.00
"ОГУП ""Челябинская областная станция переливания крови""";Челябинская область;Челябинск;Челябинск;454076, г. Челябинск, ул. Воровского, 68;55.142505;61.370888;(351) 232-78-88, 232-78-89;пн-пт 8.00 - 14.00
"Копейский отдел заготовки крови ОГУП ""ЧОСПК""";Челябинская область;Копейск;Копейск;г. Копейск, ул. Сутягина, 20;55.123663;61.621513;(35139) 7-56-53;пн-пт 8.00 - 12.00
"Коркинский отдел заготовки крови ОГУП ""ЧОСПК""";Челябинская область;Коркинский;Коркино;г. Коркино, ул. Маслова, 14 корп 3;54.916211;61.431999;(35152) 3-87-47;пн-пт 8.00 - 11.00
"Саткинский отдел заготовки крови ОГУП ""ЧОСПК""";Челябинская область;Саткинский;Сатка;г. Сатка, ул. Куйбышева, 15;55.048994;58.969002;(35161) 3-33-44;пн-пт 8.00 - 11.00
Южноуральский отдел заготовки крови;Челябинская область;Южноуральск;Южноуральск;Южноуральск, ул. Строителей, 21;54.447007;61.242485;(35134) 4-27-18;пн-пт 8:00 - 11:00
"Златоустовский филиал ОГУП ""ЧОСПК""";Челябинская область;Златоуст;Златоуст;г. Златоуст, пр-т Гагарина, 8 линия, 4;55.189178;59.645348;(35136) 5-32-81;пн-пт 8.00 - 12.00
Отделение переливания крови г. Магнитогорск;Челябинская область;Магнитогорск;Магнитогорск;г. Магнитогорск, пр-т К. Маркса, 176;53.463239;59.078178;(3519) 34-05-90;пн-пт 8.00 - 12.00
"Миасский филиал ОГУП ""ЧОСПК""";Челябинская область;Миасс;Миасс;г. Миасс, пр-т Автозаводцев, 36;55.03365;60.11982;(35135) 7-07-95;пн-пт 8.00 - 12.00
Отделение переливания крови г. Челябинск;Челябинская область;Челябинск;Челябинск;г. Челябинск, улю Румянцева, 28 корп 5, медгородок;55.254953;61.379219;(351) 721-46-48;пн-пт 8.00-12.00
"ГУЗ ""Салехардская окружная клиническая больница""";Ямало-Ненецкий АО;Салехард;Салехард;г. Салехард, ул. Мира, 39;66.533311;66.60038;(34922) 4-50-79;пн-пт 8.00 - 14.00
"МУЗ ""ГБ г. Губкинский""";Ямало-Ненецкий АО;Губкинский;Губкинский;г. Губкинский, мкрн. 1, 1;64.435574;76.498375;(34936) 3-68-77, 3-68-80;пн-пт 8.00 -14.00
"МУЗ ""Лабытнангская центральная городская многопрофильная больница""";Ямало-Ненецкий АО;Лабытнанги;Лабытнанги;г. Лабытнанги, ул. Дзержинского, 27;66.655508;66.394386;(34992) 5-05-70;пн-пт 8.00 - 15.00
"МУЗ ""ЦРБ г. Надым""";Ямало-Ненецкий АО;Надымский;Надым;г. Надым, ул. Сенькина, 2;65.535906;72.541294;(3499) 53-06-82, 53-06-61;пн-пт 8.00 - 15.00
"МУЗ ""Центральная городская больница г. Новый Уренгой""";Ямало-Ненецкий АО;Новый Уренгой;Новый Уренгой;г. Новый Уренгой, ул. Геологоразведчиков, 7;66.097239;76.700249;(3494) 94-52-97;пн-пт 8.00 - 15.00
ГУЗ Пензенская областная СПК;Пензенская область;Пенза;Пенза;г. Пенза, ул. К. Цеткин, 41а;53.220219;45.048923;(8412) 50-15-05, 50-15-15;пн-чт  8.00 - 14.00
"ГУЗ ""Республиканская станция переливания крови""";Республика Дагестан;Махачкалинский район;Махачкала;г. Махачкала, ул. Д. Атаева, д. 3;42.972847;47.493532;(8722) 63-79-41, 63-75-92, 63-76-18;пн-сб 8.30 - 15.00
Республиканская детская КБ;Республика Дагестан;Махачкалинский район;Махачкала;г. Махачкала, пр. Акушинского, 7 линия, 2а;42.973571;47.489991;(8722) 64-75-71, 63-32-27;пн-пт 8.30 - 13.00
"ГУЗ ""Республиканская станция переливания крови""";Республика Ингушетия;Назрановский;Назрань;386102, г. Назрань, ул. Муталиева, 11;43.220877;44.767056;(8732) 22-22-84, 22-53-02;пн-пт 9.00 - 16.00
"ГУЗ ""Центр крови Республики Калмыкия""";Республика Калмыкия;Элиста;Элиста;г. Элиста, ул. Пушкина, 52;46.312962;44.253460;(84722) 2-48-34, 2-45-09;пн-пт 8.00 - 16.00, сб 8.00-13.00
"ГУЗ ""Республиканская станция переливания крови""";Республика Карачаево-Черкесия;Черкесск;Черкесск;г. Черкесск, ул. Пушкина, 67;44.230850;42.064770;(8782) 26-54-01, 26-40-60;пн-пт 8.30 - 13.00
"ГУЗ ""Станция переливания крови Псковской области""";Псковская область;Псковский;Псков;г. Псков, Интернациональный пер., д. 4;57.822812;28.321456;(8112) 56-26-13;пн-пт 9.00-13.00, чт 15.00-18.00
"ГУЗ ""Камчатская краевая станция переливания крови""";Камчатский край;Петропавловск-Камчатский район;Петропавловск-Камчатский;г. Петропавловск-Камчатский, ул. Курчатова, д. 17;53.061562;158.622482;(4152) 7-23-65;пн-пт 8.30-11.30
"ГУЗ ""Республиканская СПК""";Республика Хакасия;Усть-Абаканский район;Абакан;г. Абакан, ул. Хакасская, 26;53.722107;91.463885;(39022) 34-33-51;пн-пт 8.00 -15.30
Волгодонский филиал;Ростовская область;Волгодонский;Волгодонск;г. Волгодонск, ул. Маршала Кашевого, 23;47.519039;42.141178;(8639) 23-14-92;пн-пт 8.30 - 13.30
"ГУЗ ""Станция переливания крови""";Ростовская область;Ростов-на-Дону;Ростов-на-Дону;г. Ростов-на-Дону, ул. Ченцова, 71/63б;47.236573;39.753857;(863) 251-82-81, 251-87-58;пн-пт 8.30 - 13.30
ОПК в Белокалитвенском районе;Ростовская область;Белокалитвинский;Белая Калитва;г. Белая Калитва, ул. Российская, 5;48.192440;40.773819;(86383) 4-18-68;пн-чт 8.30 - 13.30
"ГУЗ ""Рязанская ОКБ""";Рязанская область;Рязань городской округ;Рязань;г. Рязань, ул. Интернациональная, 3а;54.672172;39.656091;(4912) 21-41-52, 21-41-54;вт-пт 8.30 - 11.00
"ГУЗ ""Рязанская областная станция переливания крови""";Рязанская область;Рязань городской округ;Рязань;г. Рязань, ул. Спортивная, 7;54.624660;39.738571;(4912) 27-35-06;пн-пт 8.00 - 13.00
"Филиал №4 ГУЗ ""ЛОСПК""";Ленинградская область;Кингисеппский район;Кингисепп;Кингисеппский район, г. Кингисепп, ул. Большая Советская, д. 22;59.376117;28.605938;(81375) 2-56-60;вт 9:00-12:00
"ГУЗ ""Станция переливания крови""";Хабаровский край;Хабаровский;Хабаровск;г. Хабаровск, ул. Волочаевская, 46;48.465466;135.092450;(4212) 36-55-06, 23-82-90;пн-пт 8.30-13.30
Отделение забора крови №7;Ярославская область;Угличский;Углич;г. Углич, ул. Северная, 9;57.526018;38.331585;(48532) 5-43-09, 5-49-12;ср, чт 8.00-12.00
"РУЗ ""Станция переливания крови Минздрава Республики Тыва""";Республика Тыва;Кызылский кожуун;Кызыл;г. Кызыл, ул. Чульдум, 1;51.721909;94.417397;(9422) 2-34-82;пт 8.00-11.00
"ГУЗ ""Клинический онкологический диспансер""";Омская область;Омск;Омск;г. Омск, ул. Завертяева, 9/1;55.040467;73.443389;(3812) 60-18-12;пн-пт 9.30-13.00
"МУЗ ""Данковская ЦРБ""";Липецкая область;Данковский;Данков;г. Данков, ул. Зайцева, 3/1;53.249630;39.142780;(47465) 6-57-11, 6-60-68;пн-пт 8.00-16.00
"МУ ""Мытищинская ГКБ""";Московская область;Мытищинский район;Мытищи;г. Мытищи, ул. Коминтерна, 24;55.918979;37.758345;"(495) 586-43-11, ОПК; 586-41-66";пн,вт 9.30-11.00
"ГУЗ МО ""Подольская станция переливания крови""";Московская область;Подольский район;Подольск;г. Подольск, ул. Кирова, 9;55.427993;37.537417;(496) 754-10-94, 754-36-76;пн,вт,ср 8.00-12.00
"ММУ ""Крестецкая ЦРБ""";Новгородская область;Крестцовский;Крестцы;р.п. Крестцы, ул. Московская, 1;58.242359;32.502510;(81659) 5-43-16;вт 10.00-12.00
"МУЗ ""Окуловская ЦРБ""";Новгородская область;Окуловский;Окуловка;г. Окуловка, ул. Калинина, 129;58.369831;33.301609;(81657) 2-35-90;пн,ср 8.30-9.30
"МУЗ ""Закаменская ЦРБ""";Республика Бурятия;Закаменский район;Закаменск;г. Закаменск, ул. Больничная, 6;50.367840;103.279030;(30137) 4-52-29, 4-42-50;пн-пт 8.00-16.30
"Филиал ГУЗ ""Чаунская РБ""";Чукотский АО;Певек;Певек;г. Певек, ул. Куваева, 17;69.69889;170.374489;(42737) 4-13-02, 4-10-40;вт 8.00-12.00
Отделение забора крови №2;Ярославская область;Ярославль;Ярославль;г. Ярославль, ул. Загородный сад, 11;57.639456;39.863348;(4852) 25-12-45;вт,чт 8.00-12.00
Центральная диагностическая лаборатория;Санкт-Петербург;Санкт-Петербург;Санкт-Петербург;Новоизмайловский пр-т, 29;59.862017;30.303315;(812) 375-81-28;пн-сб 8.30-14.00
"МУЗ ""Октябрьская ЦРБ""";Еврейская АО;Октябрьский;с.  Амурзет;Октябрьский р-он, с. Амурзет, ул. Ленина, 98;47.695099;131.090744;(42665) 2-24-01;пн-пт 8.00-15.30
"МУЗ ""КБ СПМ №7""";Волгоградская область;Волгоград городской округ;Волгоград;г. Волгоград, ул. Казахская, 1;48.676017;44.456487;(8442) 41-02-23;вт,чт 8.00-12.00
"ГУЗ ""Республиканская станция переливания крови""";Республика Кабардино-Балкария;Нальчик;Нальчик;г. Нальчик, ул. Тарчокова, 12;43.49079;43.602505;(8662) 7-26-46;пн-пт 8.00-14.00
"МУЗ ""ГБ городского округа Прохладный""";Республика Кабардино-Балкария;Прохладненский;Прохладный;г. Прохладный, ул. Ленина, 113;43.748529;44.034748;(86631) 4-55-35;пн,ср, пт 8.00-14.30
"МЛПУ ""Зеленчукская ЦРБ""";Республика Карачаево-Черкесия;Зеленчукский;ст. Зеленчукская;Зеленчукский р-н, ст. Зеленчукская, ул. Интернациональная, 123;43.859119;41.589710;(87878) 4-39-09;пн,вт,чт,пт 10.00-12.00
"МЛПУ ""Карачаевская ЦГРБ";Республика Карачаево-Черкесия;Карачаевский;Карачаевск;г. Карачаевск, ул. Магометова, 5;43.775299;41.909851;(87879) 2-21-10;вт-чт 9.00-13.00
"МЛПУ ""Урупская ЦРБ""";Республика Карачаево-Черкесия;Урупский;пос. Медногорский;Урупский район, пос. Медногорский, ул. Мира, 1;43.916667;41.183333;(87876) 6-12-94;вт 8.00-12.00
"МЛПУ ""Костомукшская ГБ""";Республика Карелия;Костомукша;Костомукша;г. Костомукша, ул. Мира, 9;64.570511;30.575470;(81459) 5-10-27;вт, чт 9.00-12.00
"МУ ""Медвежьегорская ЦРБ""";Республика Карелия;Медвежьегорский;Медвежьегорск;г. Медвежьегорск, ул. Солунина, 14;62.911598;34.434860;(81434) 5-67-33;вт 9.00-12.00
"МУ ""Сегежская ЦРБ""";Республика Карелия;Сегежский;Сегежа;г. Сегежа, ул. Мира, 38;63.743439;34.303120;(81431) 4-31-55;вт,чт 9.00-12.00
"МУ ""Суоярвская ЦРБ""";Республика Карелия;Суоярвский;Суоярви;г. Суоярви, ул. Шельшакова, 17;62.094341;32.376759;(81457) 5-10-40;вт 9.00-12.00
"МУ ""ЦРБ Беломорского р-на""";Республика Карелия;Беломорский;Беломорск;г. Беломорск, ул. Мерецкова, 6;64.545837;34.772820;(81437) 5-13-41;вт 9.00-12.00
"МУ ""ЦРБ Кемского р-на""";Республика Карелия;Кемский;Кемь;г. Кемь, ул. Энергетиков, 16;64.958382;34.568340;(81458) 2-16-54;вт 9.00-12.00
"МУ ""Чупинская РБ""";Республика Карелия;Лоухский;пос. Чупа;Лоухский р-он, п. Чупа, ул. Коргуева, 4;66.275009;33.063110;(81439) 4-15-55;вт. 9.00-12.00
"МУЗ ""Кондопожская ЦРБ""";Республика Карелия;Кондопожский;Кондопога;г. Кондопога, ул. Бумажников, 20а;62.211479;34.263470;(81451) 4-33-00;вт, чт 9.00-12.00
"МУЗ ""Лахденпохская ЦРБ""";Республика Карелия;Ланденпохский;Ланденпохья;г. Лахденпохья, ул. Красноармейская, 9;61.522289;30.192551;(81450) 2-22-48;вт 9.00-12.00
"МУЗ ""Пудожская ЦРБ""";Республика Карелия;Пудожский;Пудож;г. Пудож, ул. Пионерская, 69а;61.820271;36.533138;(81452) 5-13-74;вт 9.00-12.00
"ГУЗ ""Воркутинская станция переливания крови""";Республика Коми;Воркута городской округ;Воркута;г. Воркута, ул. Гагарина, 10-а;67.485046;64.029739;(82151) 6-32-90;пн-пт 8.00-12.00
"МУЗ ""Прилузская ЦРБ""";Республика Коми;Прилузский;с. Объячево;Прилузский район, с. Объячево, ул. Мира, 143;60.340260;49.601551;(82133) 2-27-67;вт, чт 8.00-12.00
"МУЗ ""Усинская ЦРБ""";Республика Коми;Усинск городской округ;Усинск;г. Усинск, Больничный пр-д, 2;66.009308;57.547401;(82144) 4-15-03;вт,чт 8.00-12.00
"МУЗ ""Зубово-Полянская ЦРБ""";Республика Мордовия;Зубово-Полянский район;п. Зубово-Полянское;Зубово-Полянский район, п. Зубово-Полянское, ул. Советская, 50;54.047091;42.682399;(83458) 2-19-96;пн-пт 8.00-12.00
